!AIVDM,1,1,,B,13aN3NPP00PLHW6NSqpqwwwl2Swr,0*52
$HCHDG,130.97,,,1.57,E*26
$PFEC,GPatt,,+3.91,-0.92*60
$GPZDA,063158.133,25,04,2017,,*59
!AIVDM,1,1,,A,13a?SnhP00PN1rDNLeJ=O?wl28R>,0*7B
!AIVDM,1,1,,A,13aD@T0P00PN;UfNLwP00?wl2@R@,0*02
$HCHDG,130.96,,,1.57,E*27
$PFEC,GPatt,,+3.92,-0.92*63
$TIROT,-11.16,A*11
$HCHDG,130.93,,,1.57,E*22
$PFEC,GPatt,,+3.92,-0.91*60
$SDDPT,1.95,-1.70,*5D
$AGRSA,3.64,A,,V*4E
!AIVDM,1,1,,B,13aL?;mP0lPMiE2NOOp=Qwwl20SV,0*55
!AIVDM,1,1,,B,13aDCB0P00POARHNUK:sc?wlR<2v,0*53
$HCHDG,130.90,,,1.57,E*21
$PFEC,GPatt,,+3.93,-0.92*62
$VWVHW,,T,130.90,M,0.00,N,0.00,K*41
$VWVLW,0.00,N,0.00,N*4C
!AIVDO,1,1,,,B3aC3e@0007MnjWWIG0qcwu5sP06,0*50
!AIVDM,1,1,,B,33aL=s0P00PMC>0NNA5v4?wl2<Ki,0*48
!AIVDM,1,1,,B,13aAgr?P0MPLKNfNT;7Cjgwl24it,0*27
$HCHDG,130.88,,,1.57,E*28
$PFEC,GPatt,,+3.93,-0.92*62
$GPGLL,5314.199,N,00631.462,E,063158.533,A,A*53
$GPRMC,063158.533,A,5314.199,N,00631.462,E,0.00,45.00,250417,1.57,E,A*08
$HCHDG,130.84,,,1.57,E*24
$PFEC,GPatt,,+3.93,-0.93*63
$WIMTW,9.60,C*02
$WIMWV,138.97,R,12.69,N,A*1B
$HCHDG,130.81,,,1.57,E*21
$PFEC,GPatt,,+3.93,-0.92*62
$TIROT,-18.16,A*18
!AIVDM,1,1,,A,13aC20hP000N2RjNMg@h0?wjP<1d,0*2F
$HCHDG,130.79,,,1.57,E*26
$PFEC,GPatt,,+3.94,-0.94*63
$GPVTG,45.00,T,,M,0.00,N,0.00,K,A*0C
$AGRSA,3.64,A,,V*4E
$HCHDG,130.78,,,1.57,E*27
$PFEC,GPatt,,+3.94,-0.95*62
!AIVDM,1,1,,A,13aDvt001WPO?sBNV?`Ualsj00S6,0*17
!AIVDM,1,1,,B,13aJG?PP01PMWKvNNLqLa?v024j0,0*37
$HCHDG,130.75,,,1.57,E*2A
$PFEC,GPatt,,+3.94,-0.95*62
!AIVDM,1,1,,B,13aFg5PP00PN3qHNLcJh0?wn2<0@,0*6D
$HCHDG,130.73,,,1.57,E*2C
$PFEC,GPatt,,+3.94,-0.95*62
$GPZDA,063159.103,25,04,2017,,*5B
$HCHDG,130.71,,,1.57,E*2E
$PFEC,GPatt,,+3.93,-0.98*68
$TIROT,-14.78,A*1C
!AIVDM,1,1,,A,13aGFWhP00PN<H:NLvOf4?wnR4it,0*4F
!AIVDM,1,1,,B,13bihL5OhT0LwP@NanPk9BF000Re,0*15
!AIVDM,1,1,,B,33aj>25000POgrlNPp93oS7h0DUb,0*05
!AIVDM,1,1,,A,E>jN6Ui47a4e7W@8LP00000000008T;E?2Asp00003v010,4*69
$HCHDG,130.69,,,1.57,E*27
$PFEC,GPatt,,+3.92,-0.99*68
$SDDPT,1.91,-1.70,*59
$AGRSA,3.64,A,,V*4E
!AIVDM,1,1,,B,33a;2>05A3PM1r@NTm74R3n00000,0*51
$HCHDG,130.67,,,1.57,E*29
$PFEC,GPatt,,+3.93,-1.00*68
$VWVHW,,T,130.67,M,0.00,N,0.00,K*49
$VWVLW,0.00,N,0.00,N*4C
!AIVDM,1,1,,B,13aRqcPP000N5vJNMWsW4?wlRD18,0*0E
$GPGBS,063159.00,2.1,1.6,3.2,,,,*4C
!AIVDO,1,1,,,B3aC3e@0007Mnk7WIFtsgwuUsP06,0*12
!AIVDM,1,1,,B,13aFgiPP0uPO`i8NPFmJagv024j0,0*06
!AIVDM,1,1,,B,13aKUaPP1@POAAVNOvoBqgwn2<1R,0*39
$HCHDG,130.65,,,1.57,E*2B
$PFEC,GPatt,,+3.93,-1.01*69
$GPGLL,5314.199,N,00631.462,E,063159.503,A,A*51
$GPRMC,063159.503,A,5314.199,N,00631.462,E,0.00,45.00,250417,1.57,E,A*0A
!AIVDM,1,1,,B,13`hBPS000PLlmdNc5<=6aCl8D4M,0*43
$HCHDG,130.64,,,1.57,E*2A
$PFEC,GPatt,,+3.93,-1.02*6A
$WIMTW,9.60,C*02
$WIMWV,147.46,R,11.99,N,A*13
$HCHDG,130.62,,,1.57,E*2C
$PFEC,GPatt,,+3.94,-1.02*6D
$TIROT,-12.64,A*17
!AIVDM,1,1,,B,13aDqmhP00PN7kJNMSBe=OwFR@01,0*09
$HCHDG,130.61,,,1.57,E*2F
$PFEC,GPatt,,+3.94,-1.02*6D
$GPVTG,45.00,T,,M,0.00,N,0.00,K,A*0C
$AGRSA,3.64,A,,V*4E
!AIVDM,1,1,,A,13aL>b0P00PLmSlNQ?ue0wv020Sk,0*70
$HCHDG,130.60,,,1.57,E*2E
$PFEC,GPatt,,+3.93,-1.02*6A
!AIVDM,1,1,,A,13aGuEh0000LGj2NSu7PIHP20D2=,0*1E
$HCHDG,130.58,,,1.57,E*25
$PFEC,GPatt,,+3.93,-1.02*6A
$HCHDG,130.57,,,1.57,E*2A
$PFEC,GPatt,,+3.93,-1.02*6A
$GPZDA,063159.841,25,04,2017,,*54
!AIVDM,1,1,,A,E>jN6Ui47a4e7W@8LP00000000008T;E?2Asp00003v010,4*69
$HCHDG,130.55,,,1.57,E*28
$PFEC,GPatt,,+3.92,-1.02*6B
$TIROT,-12.19,A*1D
!AIVDM,1,1,,B,35?kED00080OD4dNVkeJj`qn0000,0*5C
$HCHDG,130.53,,,1.57,E*2E
$PFEC,GPatt,,+3.91,-1.02*68
$SDDPT,1.99,-1.70,*51
$AGRSA,3.64,A,,V*4E
!AIVDM,1,1,,A,402E34Qv5<VP0PL;CNNVEEG000S:,0*66
!AIVDM,1,1,,A,402E34Av5<VP0POIQHNQ=5700H0J,0*07
$HCHDG,130.53,,,1.57,E*2E
$PFEC,GPatt,,+3.91,-1.00*6A
$VWVHW,,T,130.53,M,0.00,N,0.00,K*4E
$VWVLW,0.00,N,0.00,N*4C
!AIVDM,1,1,,B,13aI;P?P01PLK::NSfqcb?v22<1I,0*5B
!AIVDO,1,1,,,B3aC3e@0007Mnk7WIFt03wP5sP06,0*40
$HCHDG,130.53,,,1.57,E*2E
$PFEC,GPatt,,+3.91,-1.00*6A
$GPGLL,5314.199,N,00631.462,E,063200.241,A,A*5F
$GPRMC,063200.241,A,5314.199,N,00631.462,E,0.00,45.00,250417,1.57,E,A*04
!AIVDM,1,1,,A,13aIi;PP00PMwOJNLu;P0?v024j0,0*38
$HCHDG,130.53,,,1.57,E*2E
$PFEC,GPatt,,+3.91,-0.99*6B
$WIMTW,9.60,C*02
$WIMWV,132.97,R,11.48,N,A*11
!AIVDM,1,1,,A,13:QrP302F0Or2bNRUmn54p20@0R,0*5C
$HCHDG,130.53,,,1.57,E*2E
$PFEC,GPatt,,+3.90,-1.00*6B
$TIROT,-7.07,A*26
!AIVDM,1,1,,B,13aGuJP000PN>9LNLUT>45822@0V,0*29
!AIVDM,1,1,,B,13aEOs0P0cPOI9lNJmg:AwvVR@0`,0*6F
$HCHDG,130.53,,,1.57,E*2E
$PFEC,GPatt,,+3.90,-0.99*6A
$GPVTG,45.00,T,,M,0.00,N,0.00,K,A*0C
$AGRSA,3.64,A,,V*4E
$HCHDG,130.53,,,1.57,E*2E
$PFEC,GPatt,,+3.90,-0.99*6A
!AIVDM,1,1,,B,13aDpKhP00POebPNPI@amwv2280e,0*3E
$HCHDG,130.52,,,1.57,E*2F
$PFEC,GPatt,,+3.91,-1.00*6A
!AIVDM,1,1,,A,402E3OQv5<VP00OOa`NTs5i00<5b,0*5E
!AIVDM,1,1,,B,13aIjI0P00PO`=8NPOebg?v4280j,0*2A
$HCHDG,130.52,,,1.57,E*2F
$PFEC,GPatt,,+3.92,-0.99*68
$GPZDA,063201.113,25,04,2017,,*54
$HCHDG,130.52,,,1.57,E*2F
!AIVDM,1,1,,A,33aB;2OP00PLK<vNSoq00?v222vS,0*53
$PFEC,GPatt,,+3.92,-0.99*68
$TIROT,-4.76,A*23
!AIVDM,1,1,,B,33aDvt001WPO?u@NV?IUalsn0000,0*5A
$HCHDG,130.53,,,1.57,E*2E
$PFEC,GPatt,,+3.93,-1.00*68
$SDDPT,1.99,-1.70,*51
$AGRSA,3.64,A,,V*4E
$HCHDG,130.53,,,1.57,E*2E
$PFEC,GPatt,,+3.93,-1.00*68
$VWVHW,,T,130.53,M,0.00,N,0.00,K*4E
$VWVLW,0.00,N,0.00,N*4C
!AIVDO,1,1,,,B3aC3e@0007Mnk7WIFt03wPUsP06,0*20
$HCHDG,130.52,,,1.57,E*2F
$PFEC,GPatt,,+3.95,-0.99*6F
$GPGLL,5314.199,N,00631.461,E,063201.513,A,A*5D
$GPRMC,063201.513,A,5314.199,N,00631.461,E,0.00,45.00,250417,1.57,E,A*06
$HCHDG,130.53,,,1.57,E*2E
$PFEC,GPatt,,+3.95,-0.99*6F
$WIMTW,9.60,C*02
$WIMWV,138.97,R,12.79,N,A*1A
!AIVDM,1,1,,B,E>jN6<?76@1WPab3bPa2@LtP0000:usB?9TV@00003v01<,4*07
$HCHDG,130.53,,,1.57,E*2E
$PFEC,GPatt,,+3.96,-0.97*62
$TIROT,-2.01,A*25
!AIVDM,1,1,,B,E>jN6<?76@1WPab3bPa2@LtP0000:usB?9TV@00003v01<,4*07
$HCHDG,130.54,,,1.57,E*29
$PFEC,GPatt,,+3.97,-0.96*62
$GPVTG,45.00,T,,M,0.00,N,0.00,K,A*0C
$AGRSA,3.64,A,,V*4E
$HCHDG,130.55,,,1.57,E*28
$PFEC,GPatt,,+3.97,-0.95*61
!AIVDM,1,1,,B,13aJI@0P000NGlPNKrETNgv60<1E,0*17
$HCHDG,130.55,,,1.57,E*28
$PFEC,GPatt,,+3.97,-0.94*60
!AIVDM,1,1,,A,13aC36@P00PMdnfNLqRP0?v424j0,0*02
$HCHDG,130.55,,,1.57,E*28
$PFEC,GPatt,,+3.96,-0.93*66
$GPZDA,063202.075,25,04,2017,,*56
!AIVDM,1,1,,B,33aLnLm0000OFlHNU<;ChCF42P00,0*0E
$HCHDG,130.56,,,1.57,E*2B
$PFEC,GPatt,,+3.95,-0.92*64
$TIROT,1.37,A*0E
$HCHDG,130.58,,,1.57,E*25
$PFEC,GPatt,,+3.95,-0.92*64
$SDDPT,2.03,-1.70,*51
$AGRSA,3.64,A,,V*4E
$HCHDG,130.59,,,1.57,E*24
$PFEC,GPatt,,+3.94,-0.91*66
$VWVHW,,T,130.59,M,0.00,N,0.00,K*44
$VWVLW,0.00,N,0.00,N*4C
!AIVDM,1,1,,A,33a;2>0414PM1uHNTlf4OSn601;@,0*7A
!AIVDM,1,1,,A,139lM30P00PLq=rNN2EP0?v42<01,0*28
$HCHDG,130.59,,,1.57,E*24
$PFEC,GPatt,,+3.94,-0.89*6F
$GPGLL,5314.199,N,00631.461,E,063202.475,A,A*5F
$GPRMC,063202.475,A,5314.199,N,00631.461,E,0.00,45.00,250417,1.57,E,A*04
!AIVDO,1,1,,,B3aC3e@0007MnjWWIFt03wQ5sP06,0*20
$HCHDG,130.61,,,1.57,E*2F
$PFEC,GPatt,,+3.93,-0.89*68
$WIMTW,9.60,C*02
$WIMWV,142.97,R,12.38,N,A*12
!AIVDM,1,1,,A,13alqr0P00PLjmtNT2D7Twv42<1i,0*49
$HCHDG,130.62,,,1.57,E*2C
$PFEC,GPatt,,+3.93,-0.88*69
$TIROT,4.15,A*0B
$HCHDG,130.61,,,1.57,E*2F
$PFEC,GPatt,,+3.93,-0.88*69
$GPVTG,45.00,T,,M,0.00,N,0.00,K,A*0C
$AGRSA,3.64,A,,V*4E
$HCHDG,130.64,,,1.57,E*2A
$PFEC,GPatt,,+3.92,-0.88*68
!AIVDM,1,1,,A,13ku9=hPA:PLpvDNbvkooFT820SF,0*2F
$HCHDG,130.65,,,1.57,E*2B
$PFEC,GPatt,,+3.93,-0.88*69
!AIVDM,1,1,,A,13aEOQPP00PMg94NLj300?v620SE,0*59
!AIVDM,1,1,,B,13fK3j?P00PNbi:NKChf4?v6281u,0*5E
!AIVDM,1,1,,B,13aKUWhP00PN<:dNLidf4?v62<2E,0*10
$HCHDG,130.65,,,1.57,E*2B
$PFEC,GPatt,,+3.91,-0.88*6B
$GPZDA,063203.321,25,04,2017,,*55
$HCHDG,130.68,,,1.57,E*26
$PFEC,GPatt,,+3.91,-0.88*6B
$TIROT,6.37,A*09
$HCHDG,130.70,,,1.57,E*2F
$PFEC,GPatt,,+3.91,-0.87*64
$SDDPT,2.01,-1.70,*53
$AGRSA,3.64,A,,V*4E
!AIVDM,1,1,,A,35?kED00070OD4PNVkese`p4011P,0*69
$HCHDG,130.72,,,1.57,E*2D
$PFEC,GPatt,,+3.91,-0.86*65
$VWVHW,,T,130.72,M,0.00,N,0.00,K*4D
$VWVLW,0.00,N,0.00,N*4C
!AIVDM,1,1,,A,13`m;j?P00PNaPPNM:d@0?v62<2>,0*38
$GPGBS,063203.00,2.1,1.6,3.2,,,,*40
$HCHDG,130.75,,,1.57,E*2A
$PFEC,GPatt,,+3.91,-0.84*67
!AIVDM,2,1,0,A,53`o<d0000010H4N221`gR0QDq<TpLv22222220N2832340004VSmE2hCD88,0*61
$GPGLL,5314.199,N,00631.461,E,063203.721,A,A*5C
$GPRMC,063203.721,A,5314.199,N,00631.461,E,0.00,45.00,250417,1.57,E,A*07
!AIVDM,2,2,0,A,88888888880,2*24
!AIVDO,1,1,,,B3aC3e@0007MnjWWIFpqkwQUsP06,0*5D
!AIVDM,1,1,,B,13aDAI0P?w<tSF0l4Q@>4?wvPTj0,0*6C
$HCHDG,130.76,,,1.57,E*29
$PFEC,GPatt,,+3.92,-0.83*63
$WIMTW,9.60,C*02
$WIMWV,141.46,R,11.39,N,A*1F
!AIVDM,1,1,,B,13aFfG@P0QPOOJtNJq>:Agv624j0,0*75
$HCHDG,130.78,,,1.57,E*27
$PFEC,GPatt,,+3.92,-0.84*64
$TIROT,10.58,A*37
!AIVDM,1,1,,A,402E:viv5<VP3PLq1dNN1hQ02L2J,0*3C
!AIVDM,1,1,,A,402E;2Qv5<VP3PNk?lNK;sA0282G,0*22
$HCHDG,130.79,,,1.57,E*26
$PFEC,GPatt,,+3.92,-0.83*63
$GPVTG,45.00,T,,M,0.00,N,0.00,K,A*0C
$AGRSA,3.64,A,,V*4E
!AIVDM,1,1,,A,13aENjPP00PLLvvNMWRdDOv62<0e,0*06
$HCHDG,130.80,,,1.57,E*20
$PFEC,GPatt,,+3.91,-0.84*67
!AIVDM,1,1,,B,33b:l@7OhK0Ls6LNTmARFjj:012@,0*14
$HCHDG,130.82,,,1.57,E*22
$PFEC,GPatt,,+3.92,-0.83*63
!AIVDM,1,1,,A,E>jMjb194U7;2V200000000000007jMJ>sDnp81113v007,4*43
$HCHDG,130.84,,,1.57,E*24
$PFEC,GPatt,,+3.92,-0.83*63
$GPZDA,063204.057,25,04,2017,,*50
$HCHDG,130.85,,,1.57,E*25
$PFEC,GPatt,,+3.91,-0.83*60
$TIROT,9.19,A*0A
$HCHDG,130.88,,,1.57,E*28
$PFEC,GPatt,,+3.92,-0.82*62
$SDDPT,1.98,-1.70,*50
$AGRSA,3.64,A,,V*4E
!AIVDM,1,1,,A,13aDqr?P000N7?0NLmlN4?v8082g,0*7E
$HCHDG,130.90,,,1.57,E*21
!AIVDM,1,1,,A,13aGtWwP0vPLdlVNMoG37wv820Rv,0*32
$PFEC,GPatt,,+3.92,-0.83*63
$VWVHW,,T,130.90,M,0.00,N,0.00,K*41
$VWVLW,0.00,N,0.00,N*4C
!AIVDM,1,1,,A,13bMo0?P0DPLi=DNSoD4L?v82<15,0*76
!AIVDM,1,1,,B,13@=8V6000PO<j<NUKGD6SBD0H2i,0*54
$HCHDG,130.93,,,1.57,E*22
$PFEC,GPatt,,+3.91,-0.83*60
$GPGLL,5314.199,N,00631.461,E,063204.457,A,A*59
$GPRMC,063204.457,A,5314.199,N,00631.461,E,0.01,45.00,250417,1.57,E,A*03
!AIVDM,1,1,,B,13aGFDhP13POd@PNPE?bROv82H2m,0*22
!AIVDO,1,1,,,B3aC3e@0007MnjWWIFpp7wR5sP06,0*63
$HCHDG,130.95,,,1.57,E*24
$PFEC,GPatt,,+3.92,-0.81*61
$WIMTW,9.60,C*02
$WIMWV,141.46,R,11.07,N,A*12
$HCHDG,130.97,,,1.57,E*26
$PFEC,GPatt,,+3.91,-0.82*61
$TIROT,13.52,A*3E
!AIVDM,2,1,1,A,53aB9NP000010??OG:0h4q@4p62222222222220U1p62340Ht711C1VRBS88,0*71
!AIVDM,2,2,1,A,88888888883,2*26
!AIVDM,2,1,2,B,53aLnLh2B3bI08IR220mDiA85ADN3;222222220l1@F755<:0=1ACDj0EQC`,0*3C
!AIVDM,2,2,2,B,88888888881,2*24
$HCHDG,131.00,,,1.57,E*29
$PFEC,GPatt,,+3.91,-0.83*60
$GPVTG,45.00,T,,M,0.01,N,0.01,K,A*0C
$AGRSA,3.64,A,,V*4E
!AIVDM,1,1,,A,13aGuEPP1?PJps:NSIjadOv:20Sq,0*07
$HCHDG,131.01,,,1.57,E*28
$PFEC,GPatt,,+3.91,-0.84*67
$HCHDG,131.04,,,1.57,E*2D
$PFEC,GPatt,,+3.90,-0.85*67
!AIVDM,1,1,,A,33aDvt001VPO@0PNV?3Uclt60000,0*55
$HCHDG,131.07,,,1.57,E*2E
$PFEC,GPatt,,+3.89,-0.85*6F
$GPZDA,063205.039,25,04,2017,,*59
$HCHDG,131.09,,,1.57,E*20
$PFEC,GPatt,,+3.89,-0.86*6C
$TIROT,16.98,A*3D
!AIVDM,1,1,,B,33a;2>0vA5PM20PNTlf4R3n<0131,0*1A
$HCHDG,131.10,,,1.57,E*28
$PFEC,GPatt,,+3.88,-0.88*63
$SDDPT,1.98,-1.70,*50
$AGRSA,3.64,A,,V*4E
!AIVDM,2,1,3,B,54TWRP02>j:a0a@h000<5@Pl400000000000001?<`;2<4n@0:11C1VRBS00,0*30
!AIVDM,2,2,3,B,0000000000:,2*2E
$HCHDG,131.12,,,1.57,E*2A
$PFEC,GPatt,,+3.87,-0.89*6D
$VWVHW,,T,131.12,M,0.00,N,0.00,K*4A
$VWVLW,0.00,N,0.00,N*4C
$HCHDG,131.14,,,1.57,E*2C
$PFEC,GPatt,,+3.86,-0.91*65
$GPGLL,5314.199,N,00631.461,E,063205.439,A,A*50
$GPRMC,063205.439,A,5314.199,N,00631.461,E,0.01,45.00,250417,1.57,E,A*0A
$HCHDG,131.16,,,1.57,E*2E
!AIVDO,1,1,,,B3aC3e@0007Mnj7WIFpnSwRUsP06,0*19
$PFEC,GPatt,,+3.86,-0.91*65
$WIMTW,9.60,C*02
$WIMWV,153.97,R,10.28,N,A*11
$HCHDG,131.16,,,1.57,E*2E
$PFEC,GPatt,,+3.85,-0.92*65
$TIROT,11.89,A*3A
$HCHDG,131.17,,,1.57,E*2F
$PFEC,GPatt,,+3.85,-0.93*64
$GPVTG,45.00,T,,M,0.01,N,0.01,K,A*0C
$AGRSA,3.64,A,,V*4E
$HCHDG,131.19,,,1.57,E*21
$PFEC,GPatt,,+3.85,-0.94*63
$HCHDG,131.20,,,1.57,E*2B
$PFEC,GPatt,,+3.85,-0.95*62
$HCHDG,131.21,,,1.57,E*2A
$PFEC,GPatt,,+3.85,-0.95*62
$GPZDA,063206.309,25,04,2017,,*5A
!AIVDM,1,1,,A,13`tl4001n0OG=jNV95EJ4H>0<4c,0*5A
$HCHDG,131.22,,,1.57,E*29
$PFEC,GPatt,,+3.86,-0.95*61
$TIROT,10.54,A*3B
!AIVDM,1,1,,A,33b:l@7OhK0Ls78NTmCRFjv>00wA,0*3D
!AIVDM,1,1,,B,13aDobhP00PNEgjNL04N4?v<2H3n,0*4F
$HCHDG,131.22,,,1.57,E*29
$PFEC,GPatt,,+3.87,-0.95*60
$SDDPT,1.80,-1.70,*59
$AGRSA,3.64,A,,V*4E
$HCHDG,131.23,,,1.57,E*28
$PFEC,GPatt,,+3.88,-0.96*6C
$VWVHW,,T,131.23,M,0.00,N,0.00,K*48
$VWVLW,0.00,N,0.00,N*4C
$HCHDG,131.24,,,1.57,E*2F
$PFEC,GPatt,,+3.88,-0.95*6F
$GPGLL,5314.199,N,00631.461,E,063206.709,A,A*53
$GPRMC,063206.709,A,5314.199,N,00631.461,E,0.01,45.00,250417,1.57,E,A*09
$HCHDG,131.24,,,1.57,E*2F
$PFEC,GPatt,,+3.89,-0.93*68
$WIMTW,9.60,C*02
$WIMWV,146.96,R,9.58,N,A*2B
!AIVDO,1,1,,,B3aC3e@0007Mnj7WIFpm?wS5sP06,0*17
$HCHDG,131.25,,,1.57,E*2E
$PFEC,GPatt,,+3.90,-0.92*61
$TIROT,8.63,A*06
!AIVDM,1,1,,B,13aI980P00PMm0DNLjaP0?v?20SR,0*76
$HCHDG,131.26,,,1.57,E*2D
$PFEC,GPatt,,+3.91,-0.92*60
$GPVTG,45.00,T,,M,0.01,N,0.01,K,A*0C
$AGRSA,3.64,A,,V*4E
$HCHDG,131.26,,,1.57,E*2D
$PFEC,GPatt,,+3.92,-0.91*60
$HCHDG,131.26,,,1.57,E*2D
$PFEC,GPatt,,+3.93,-0.88*69
!AIVDM,1,1,,B,E02E34?76@1WPab3bPa200000000:us8?9TV@00003v013,4*0A
$HCHDG,131.26,,,1.57,E*2D
$PFEC,GPatt,,+3.93,-0.88*69
$GPZDA,063207.041,25,04,2017,,*54
!AIVDM,1,1,,A,13bo4B00000LIt6NSqfKUrd@04j0,0*34
!AIVDM,2,1,4,A,58IClD01h2HGUHpN220<Pj0TppuH5@u:22222216APT?:5<50AiACDj0EQC`,0*54
!AIVDM,2,2,4,A,88888888883,2*23
$HCHDG,131.27,,,1.57,E*2C
$PFEC,GPatt,,+3.93,-0.88*69
$TIROT,6.39,A*07
!AIVDM,1,1,,B,13aGFtgP00PN9T0NLt=P0?v>2@4J,0*17
$HCHDG,131.26,,,1.57,E*2D
$PFEC,GPatt,,+3.94,-0.87*61
$SDDPT,1.80,-1.70,*59
$AGRSA,3.64,A,,V*4E
!AIVDM,2,1,5,B,58IClD01h2HGUHpN220<Pj0TppuH5@u:22222216APT?:5<50AiACDj0EQC`,0*56
!AIVDM,2,2,5,B,88888888883,2*21
$HCHDG,131.26,,,1.57,E*2D
$PFEC,GPatt,,+3.94,-0.87*61
$VWVHW,,T,131.26,M,0.00,N,0.00,K*4D
$VWVLW,0.00,N,0.00,N*4C
$GPGBS,063207.00,2.1,1.6,3.2,,,,*44
!AIVDM,1,1,,B,35?kED00060OD4@NVkfcgHp>00q1,0*68
$HCHDG,131.27,,,1.57,E*2C
$PFEC,GPatt,,+3.94,-0.87*61
$GPGLL,5314.199,N,00631.461,E,063207.441,A,A*5D
$GPRMC,063207.441,A,5314.199,N,00631.461,E,0.01,45.00,250417,1.57,E,A*07
!AIVDM,1,1,,B,13aI9LhP01PMEI0NNDKN4?v>284U,0*0B
!AIVDM,1,1,,A,13aJG?PP00PMWKtNNLrLdgv@2H4W,0*5C
$HCHDG,131.25,,,1.57,E*2E
!AIVDM,1,1,,B,13cDvF00000O?86NU=lHM`qp0h4`,0*5C
$PFEC,GPatt,,+3.95,-0.88*6F
$WIMTW,9.60,C*02
$WIMWV,116.97,R,9.19,N,A*2A
!AIVDO,1,1,,,B3aC3e@0007MnjWWIFpl3wSUsP06,0*1A
!AIVDM,1,1,,B,13a?SnhP00PN1rBNLeJ00?v>20Sh,0*00
!AIVDM,1,1,,A,33aDCB0P00POARHNUK:sc?v>R031,0*4B
$HCHDG,131.25,,,1.57,E*2E
$PFEC,GPatt,,+3.94,-0.87*61
$TIROT,3.46,A*0A
!AIVDM,1,1,,A,13aQdM0P00PNKhDNKibP0?v@2L1R,0*5E
$HCHDG,131.24,,,1.57,E*2F
$PFEC,GPatt,,+3.94,-0.88*6E
$GPVTG,45.00,T,,M,0.01,N,0.01,K,A*0C
$AGRSA,3.64,A,,V*4E
$HCHDG,131.23,,,1.57,E*28
$PFEC,GPatt,,+3.94,-0.88*6E
$HCHDG,131.21,,,1.57,E*2A
$PFEC,GPatt,,+3.94,-0.89*6F
!AIVDM,1,1,,A,13ku9s@0000O@0DNUGN;IprB2D2K,0*64
$HCHDG,131.21,,,1.57,E*2A
$PFEC,GPatt,,+3.94,-0.90*67
$GPZDA,063208.023,25,04,2017,,*5F
$HCHDG,131.20,,,1.57,E*2B
$PFEC,GPatt,,+3.95,-0.92*64
$TIROT,-0.88,A*26
$HCHDG,131.17,,,1.57,E*2F
$PFEC,GPatt,,+3.94,-0.93*64
$SDDPT,1.80,-1.70,*59
$AGRSA,3.64,A,,V*4E
!AIVDM,1,1,,A,13aN3NPP00PLHVrNSqor8gv@2Sws,0*7B
!AIVDM,1,1,,B,13aGsE@P00PO@1DNU<?h0?v@24j0,0*18
$HCHDG,131.16,,,1.57,E*2E
$PFEC,GPatt,,+3.92,-0.94*65
$VWVHW,,T,131.16,M,0.00,N,0.00,K*4E
$VWVLW,0.00,N,0.00,N*4C
$HCHDG,131.14,,,1.57,E*2C
$PFEC,GPatt,,+3.91,-0.96*64
$GPGLL,5314.199,N,00631.461,E,063208.423,A,A*56
$GPRMC,063208.423,A,5314.199,N,00631.461,E,0.01,45.00,250417,1.57,E,A*0C
!AIVDM,1,1,,A,13aL?;mP0kPMiCHNOPJeP?v@285:,0*36
!AIVDM,1,1,,A,13aL=s0P00PMC>4NNA5N4?v@24j0,0*28
$HCHDG,131.13,,,1.57,E*2B
$PFEC,GPatt,,+3.91,-0.97*65
$WIMTW,9.60,C*02
$WIMWV,102.97,R,8.28,N,A*2C
!AIVDO,1,1,,,B3aC3e@0007Mnk7WIFpjSwT5sP06,0*7A
$HCHDG,131.11,,,1.57,E*29
$PFEC,GPatt,,+3.91,-0.98*6A
$TIROT,-5.85,A*2E
!AIVDM,2,1,6,A,53@=8V02A=`p@HT<001LTpB0hTIB34000000001S1AD;I59@09Q1C1VRBS00,0*75
!AIVDM,2,2,6,A,00000000002,2*20
$HCHDG,131.09,,,1.57,E*20
$PFEC,GPatt,,+3.91,-1.00*6A
$GPVTG,45.00,T,,M,0.01,N,0.01,K,A*0C
$AGRSA,3.64,A,,V*4E
!AIVDM,2,1,7,A,55ATSJ02<rv8STPv220l4d5=<5:0PTLQL5V222164Aa8?5<E0?1CA1C`8888,0*48
!AIVDM,2,2,7,A,88888888880,2*23
!AIVDM,1,1,,A,13aB9a0P000LJwhNSoTdC?vB285G,0*64
$HCHDG,131.06,,,1.57,E*2F
$PFEC,GPatt,,+3.90,-1.02*69
!AIVDM,2,1,8,B,53bs:0420cMQ0T5D001A8U@tp00000000000000m18>41t0Ht3h000000000,0*4A
!AIVDM,2,2,8,B,00000000001,2*2E
!AIVDM,1,1,,B,13bBDf0P00PLIAJNSqQ>4?vB285L,0*54
$HCHDG,131.04,,,1.57,E*2D
$PFEC,GPatt,,+3.89,-1.04*67
!AIVDM,1,1,,A,13aRqcPP000N5v@NMWsG4?v@R4j0,0*19
!AIVDM,1,1,,B,13aC20hP000N2RjNMg@h0?v@P<1e,0*06
$HCHDG,131.00,,,1.57,E*29
$PFEC,GPatt,,+3.90,-1.06*6D
$GPZDA,063209.275,25,04,2017,,*5F
!AIVDM,1,1,,A,E>jN6Ui47a4e7W@8LP00000000008T;E?2Asp00003v010,4*69
!AIVDM,1,1,,B,13aDvt001UPO@3jNV>bmcTt>0<2P,0*58
$HCHDG,130.97,,,1.57,E*26
$PFEC,GPatt,,+3.89,-1.08*6B
$TIROT,-14.84,A*1F
$HCHDG,130.95,,,1.57,E*24
$PFEC,GPatt,,+3.89,-1.08*6B
$SDDPT,2.03,-1.70,*51
$AGRSA,3.64,A,,V*4E
!AIVDM,1,1,,B,13cDrL00000O?9PNU>1r:`lD00S9,0*69
!AIVDM,1,1,,B,D02E:vh:8Nfp00N007,4*25
!AIVDM,1,1,,A,D02E34PB4g6D000000000000001,2*22
$HCHDG,130.92,,,1.57,E*23
!AIVDM,1,1,,B,D02E;2P:8Nfp00N00=,4*52
$PFEC,GPatt,,+3.91,-1.09*63
$VWVHW,,T,130.92,M,0.00,N,0.00,K*43
$VWVLW,0.00,N,0.00,N*4C
!AIVDM,1,1,,A,D02E34@B`g6D000000000000001,2*66
!AIVDM,1,1,,B,13aL>b0P00PLmSnNQ?tu0wvD2D11,0*58
$HCHDG,130.90,,,1.57,E*21
$PFEC,GPatt,,+3.91,-1.09*63
$GPGLL,5314.199,N,00631.461,E,063209.675,A,A*56
$GPRMC,063209.675,A,5314.199,N,00631.461,E,0.01,45.00,250417,1.57,E,A*0C
!AIVDM,1,1,,A,E>jN6Ui47a4e7W@8LP00000000008T;E?2Asp00003v010,4*69
!AIVDM,1,1,,B,13aGFWhP00PN<H2NLvOf4?vBR4j0,0*2E
$HCHDG,130.88,,,1.57,E*28
$PFEC,GPatt,,+3.91,-1.08*62
$WIMTW,9.60,C*02
$WIMWV,121.47,R,8.98,N,A*2B
$HCHDG,130.86,,,1.57,E*26
$PFEC,GPatt,,+3.90,-1.07*6C
$TIROT,-13.71,A*12
!AIVDO,1,1,,,B3aC3e@0007Mnk7WIFt03wTUsP06,0*24
$HCHDG,130.82,,,1.57,E*22
$PFEC,GPatt,,+3.92,-1.04*6D
$GPVTG,45.00,T,,M,0.01,N,0.01,K,A*0C
$AGRSA,3.64,A,,V*4E
!AIVDM,1,1,,A,13aFgiPP0uPO``NNPFoJa?vD2@5v,0*39
$HCHDG,130.80,,,1.57,E*20
$PFEC,GPatt,,+3.92,-1.03*6A
!AIVDM,1,1,,B,13aD@T0P00PN;UdNLwOh0?vD20R1,0*6C
$HCHDG,130.76,,,1.57,E*29
$PFEC,GPatt,,+3.93,-1.01*69
$HCHDG,130.72,,,1.57,E*2D
$PFEC,GPatt,,+3.93,-0.98*68
$GPZDA,063210.014,25,04,2017,,*52
!AIVDM,1,1,,B,13aB;2OP00PLK<vNSoq00?vD2@68,0*7D
!AIVDM,1,1,,A,13aFg5PP00PN3qDNLcJh0?vD24j0,0*6B
$HCHDG,130.68,,,1.57,E*26
$PFEC,GPatt,,+3.95,-0.95*63
$TIROT,-20.98,A*15
$HCHDG,130.65,,,1.57,E*2B
$PFEC,GPatt,,+3.95,-0.92*64
$SDDPT,2.00,-1.70,*52
$AGRSA,3.64,A,,V*4E
!AIVDM,1,1,,A,35?kED00060OD4@NVkfsQ`pB0000,0*59
!AIVDM,1,1,,B,402E34Qv5<VP:PL;CNNVEEG000S:,0*6F
$HCHDG,130.61,,,1.57,E*2F
!AIVDM,1,1,,B,402E34Av5<VP:POIQHNQ=5700H6A,0*03
$PFEC,GPatt,,+3.95,-0.89*6E
$VWVHW,,T,130.61,M,0.00,N,0.00,K*4F
$VWVLW,0.00,N,0.00,N*4C
!AIVDM,1,1,,B,13aIjNPP00POU2vNIG<00?vDRKRh,0*77
$HCHDG,130.57,,,1.57,E*2A
$PFEC,GPatt,,+3.96,-0.88*6C
$GPGLL,5314.199,N,00631.461,E,063210.414,A,A*5B
$GPRMC,063210.414,A,5314.199,N,00631.461,E,0.01,45.00,250417,1.57,E,A*01
!AIVDM,1,1,,A,13aIjI0P00PO`<tNPOdrd?vF2@6G,0*57
$HCHDG,130.53,,,1.57,E*2E
$PFEC,GPatt,,+3.96,-0.87*63
$WIMTW,9.60,C*02
$WIMWV,128.97,R,10.08,N,A*1F
$HCHDG,130.51,,,1.57,E*2C
$PFEC,GPatt,,+3.95,-0.87*60
$TIROT,-21.38,A*1E
!AIVDO,1,1,,,B3aC3e@0007Mnl7WIFtlkwU5sP06,0*46
!AIVDM,1,1,,B,13aIi;PP00PMwORNLu7h0?vF2<0T,0*57
$HCHDG,130.49,,,1.57,E*25
$PFEC,GPatt,,+3.95,-0.85*62
$GPVTG,45.00,T,,M,0.01,N,0.01,K,A*0C
$AGRSA,3.64,A,,V*4E
!AIVDM,2,1,9,B,53@=8V02A=`p@HT<001LTpB0hTIB34000000001S1AD;I59@09Q1C1VRBS00,0*79
!AIVDM,2,2,9,B,00000000002,2*2C
$HCHDG,130.45,,,1.57,E*29
$PFEC,GPatt,,+3.94,-0.85*63
$HCHDG,130.42,,,1.57,E*2E
$PFEC,GPatt,,+3.94,-0.86*60
!AIVDM,1,1,,B,33b:l@7OhL0Ls8rNTmHBI3<H0000,0*3B
!AIVDM,1,1,,B,402E3OQv5<VP:0OOaVNTs5i00H6a,0*15
!AIVDM,1,1,,A,13aDqmhP00PN7kdNMSCM6?wdR4j0,0*7B
$HCHDG,130.39,,,1.57,E*22
$PFEC,GPatt,,+3.94,-0.85*63
$GPZDA,063210.991,25,04,2017,,*56
$HCHDG,130.38,,,1.57,E*23
$PFEC,GPatt,,+3.94,-0.86*60
$TIROT,-18.80,A*17
!AIVDM,1,1,,A,13`hBPS001PLlmdNc5>RTIBB8D4N,0*4A
!AIVDM,1,1,,A,13aGuJP000PN>9JNLUVN458F286j,0*68
$HCHDG,130.37,,,1.57,E*2C
$PFEC,GPatt,,+3.93,-0.87*66
$SDDPT,1.87,-1.70,*5E
$AGRSA,3.64,A,,V*4E
!AIVDM,1,1,,A,13aEOs0P0bPOI3LNJm`JAwvtRH6l,0*10
$HCHDG,130.37,,,1.57,E*2C
$PFEC,GPatt,,+3.93,-0.89*68
$VWVHW,,T,130.37,M,0.00,N,0.00,K*4C
$VWVLW,0.00,N,0.00,N*4C
$GPGBS,063211.00,2.1,1.6,3.2,,,,*43
$HCHDG,130.35,,,1.57,E*2E
$PFEC,GPatt,,+3.94,-0.91*66
$GPGLL,5314.199,N,00631.461,E,063211.391,A,A*50
$GPRMC,063211.391,A,5314.199,N,00631.461,E,0.01,45.00,250417,1.57,E,A*0A
$HCHDG,130.35,,,1.57,E*2E
$PFEC,GPatt,,+3.94,-0.93*64
$WIMTW,9.60,C*02
$WIMWV,135.97,R,10.28,N,A*11
$HCHDG,130.36,,,1.57,E*2D
$PFEC,GPatt,,+3.95,-0.96*60
$TIROT,-6.49,A*2D
!AIVDM,1,1,,A,13aDpKhP00POebLNPI@9w?vH2D31,0*7A
!AIVDO,1,1,,,B3aC3e@0007MnlWWIFtngwUUsP06,0*48
$HCHDG,130.37,,,1.57,E*2C
$PFEC,GPatt,,+3.96,-0.99*6C
$GPVTG,45.00,T,,M,0.01,N,0.01,K,A*0C
$AGRSA,3.64,A,,V*4E
!AIVDM,1,1,,B,13aC36@P00PMdn`NLqSh0?vH2879,0*1A
$HCHDG,130.37,,,1.57,E*2C
$PFEC,GPatt,,+3.98,-0.99*62
$HCHDG,130.38,,,1.57,E*23
$PFEC,GPatt,,+3.98,-1.01*62
$HCHDG,130.40,,,1.57,E*2C
$PFEC,GPatt,,+3.98,-1.03*60
$GPZDA,063211.975,25,04,2017,,*5D
!AIVDM,1,1,,B,13aGFUhP00POd;<NPh8KJgvJ287D,0*3B
$HCHDG,130.42,,,1.57,E*2E
$PFEC,GPatt,,+3.98,-1.05*66
$TIROT,3.73,A*0C
!AIVDM,1,1,,B,13bOPN3P00PLKf@NSsO00?vH20Rl,0*1A
$HCHDG,130.45,,,1.57,E*29
$PFEC,GPatt,,+3.99,-1.05*67
$SDDPT,1.95,-1.70,*5D
$AGRSA,3.64,A,,V*4E
$HCHDG,130.47,,,1.57,E*2B
$PFEC,GPatt,,+3.99,-1.06*64
$VWVHW,,T,130.47,M,0.00,N,0.00,K*4B
$VWVLW,0.00,N,0.00,N*4C
$HCHDG,130.50,,,1.57,E*2D
$PFEC,GPatt,,+3.99,-1.07*65
$GPGLL,5314.199,N,00631.461,E,063212.375,A,A*59
$GPRMC,063212.375,A,5314.199,N,00631.461,E,0.01,45.00,250417,1.57,E,A*03
!AIVDM,1,1,,A,13:QrP302F0Or=@NRT366DnJ04j0,0*2F
!AIVDM,1,1,,B,33aL=n5000POakbNPSNAVV9>0000,0*6C
$HCHDG,130.54,,,1.57,E*29
$PFEC,GPatt,,+3.98,-1.07*64
$WIMTW,9.60,C*02
$WIMWV,123.97,R,13.19,N,A*17
!AIVDM,1,1,,B,13aENjPP00PLLvvNMWRdDOvH20SQ,0*20
$HCHDG,130.55,,,1.57,E*28
$PFEC,GPatt,,+3.98,-1.06*65
$TIROT,12.57,A*3A
$HCHDG,130.60,,,1.57,E*2E
!AIVDO,1,1,,,B3aC3e@0007MnlWWIFp03wV5sP06,0*25
$PFEC,GPatt,,+3.98,-1.05*66
$GPVTG,45.00,T,,M,0.01,N,0.01,K,A*0C
$AGRSA,3.64,A,,V*4E
$HCHDG,130.63,,,1.57,E*2D
$PFEC,GPatt,,+3.98,-1.04*67
!AIVDM,1,1,,A,33b:l@7OhL0Ls9bNTmJ2JkDL0140,0*79
$HCHDG,130.66,,,1.57,E*28
$PFEC,GPatt,,+3.98,-1.03*60
!AIVDM,1,1,,B,13aEOQPP00PMg9vNLj400?vJ2@7l,0*5E
$HCHDG,130.70,,,1.57,E*2F
$PFEC,GPatt,,+3.97,-1.02*6E
$GPZDA,063212.960,25,04,2017,,*5A
$HCHDG,130.73,,,1.57,E*2C
$PFEC,GPatt,,+3.97,-1.01*6D
$TIROT,18.88,A*32
$HCHDG,130.78,,,1.57,E*27
$PFEC,GPatt,,+3.97,-1.01*6D
$SDDPT,1.93,-1.70,*5B
$AGRSA,3.64,A,,V*4E
!AIVDM,2,1,0,B,53aBNEH000010CKOC80QDq`D000000000000000U28:52t0Ht3VSmE2hCD88,0*54
!AIVDM,2,2,0,B,80000000000,2*2F
$HCHDG,130.82,,,1.57,E*22
$PFEC,GPatt,,+3.96,-1.00*6D
$VWVHW,,T,130.82,M,0.00,N,0.00,K*42
$VWVLW,0.00,N,0.00,N*4C
!AIVDM,1,1,,B,13aN1RHP000M4g4NPJf@2gw`0@OO,0*29
$HCHDG,130.88,,,1.57,E*28
$PFEC,GPatt,,+3.96,-0.99*6C
$GPGLL,5314.199,N,00631.461,E,063213.360,A,A*5C
$GPRMC,063213.360,A,5314.199,N,00631.461,E,0.01,45.00,250417,1.57,E,A*06
!AIVDM,1,1,,A,13aEOA@P00PO=rnNU><kNOvH24j0,0*31
!AIVDM,1,1,,B,13aDqr?P000N7>vNLmlN4?vJ0H88,0*6D
$HCHDG,130.92,,,1.57,E*23
$PFEC,GPatt,,+3.97,-0.97*63
$WIMTW,9.60,C*02
$WIMWV,134.47,R,12.28,N,A*1F
$HCHDG,130.95,,,1.57,E*24
$PFEC,GPatt,,+3.96,-0.97*62
$TIROT,24.56,A*3E
!AIVDM,1,1,,B,402E:viv5<VP=PLq1dNN1hQ020S:,0*5C
!AIVDM,1,1,,B,402E;2Qv5<VP=PNk?lNK;sA02D1J,0*5D
$HCHDG,130.97,,,1.57,E*26
$PFEC,GPatt,,+3.95,-0.96*60
$GPVTG,45.00,T,,M,0.01,N,0.01,K,A*0C
$AGRSA,3.64,A,,V*4E
!AIVDO,1,1,,,B3aC3e@0007MnlWWIFp03wVUsP06,0*45
!AIVDM,1,1,,B,13alqr0P00PLjmpNT2BWWwvJ24j0,0*5F
!AIVDM,1,1,,A,13aJI@0P000NGkpNKrElbwvL088C,0*46
!AIVDM,1,1,,B,13ku9=hPA:PLpqdNbuuotF`L2@8C,0*53
!AIVDM,1,1,,A,13aKUWhP00PN<:dNLij>4?vL2H8D,0*40
$HCHDG,131.01,,,1.57,E*28
$PFEC,GPatt,,+3.96,-0.96*63
$HCHDG,131.03,,,1.57,E*2A
$PFEC,GPatt,,+3.95,-0.95*63
$HCHDG,131.07,,,1.57,E*2E
$PFEC,GPatt,,+3.96,-0.95*60
$GPZDA,063213.965,25,04,2017,,*5E
$HCHDG,131.10,,,1.57,E*28
$PFEC,GPatt,,+3.97,-0.95*61
$TIROT,21.91,A*30
$MXPGN,00EEFF,6801,C0508C62E771B4F2*10
$MXPGN,00EEFF,6802,C0F0821AE7727B4C*66
$MXPGN,00EEFF,6803,C0F08261E7733DF5*17
$MXPGN,00EEFF,6804,C0F08261E77342D2*64
$MXPGN,00EEFF,6869,C0A0BE20E7641FD7*12
$MXPGN,00EEFF,6873,C1321419E7725953*69
$MXPGN,00EEFF,68AC,C0508238E771B4E9*65
$MXPGN,00EEFF,68CC,C0509635E771B5EA*16
$HCHDG,131.13,,,1.57,E*2B
$PFEC,GPatt,,+3.97,-0.95*61
$SDDPT,1.93,-1.70,*5B
$AGRSA,3.64,A,,V*4E
!AIVDM,1,1,,A,E>jMjb194U7;2V200000000000007jMJ>sDnp81113v007,4*43
!AIVDM,1,1,,B,13`m;j?P00PNaPLNM:e@0?vL2D2>,0*24
!AIVDM,1,1,,A,13fK3j?P00PNbi8NKChf4?vL20Rl,0*57
$HCHDG,131.16,,,1.57,E*2E
$PFEC,GPatt,,+3.98,-0.94*6F
$VWVHW,,T,131.16,M,0.00,N,0.00,K*4E
$VWVLW,0.00,N,0.00,N*4C
$HCHDG,131.18,,,1.57,E*20
$PFEC,GPatt,,+3.98,-0.95*6E
$GPGLL,5314.199,N,00631.461,E,063214.365,A,A*5E
$GPRMC,063214.365,A,5314.199,N,00631.461,E,0.01,45.00,250417,1.57,E,A*04
!AIVDM,1,1,,B,13bNqJ?P00PM1SpNUu0PHOvN2@8c,0*48
$HCHDG,131.20,,,1.57,E*2B
$PFEC,GPatt,,+3.98,-0.95*6E
$WIMTW,9.60,C*02
$WIMWV,128.97,R,10.98,N,A*16
!AIVDM,1,1,,A,13@=8V6000PO<j<NUKGD6SB`00SW,0*54
!AIVDM,1,1,,B,83aBNE@j2d<v<<<f=@Q8JSW@4?00,0*7B
$HCHDG,131.22,,,1.57,E*29
$PFEC,GPatt,,+3.99,-0.96*6C
$TIROT,18.41,A*37
!AIVDM,1,1,,B,13aGtWwP0vPLduHNMoO37OvN24j0,0*0A
$HCHDG,131.24,,,1.57,E*2F
$PFEC,GPatt,,+3.98,-0.96*6D
$GPVTG,45.00,T,,M,0.01,N,0.01,K,A*0C
$AGRSA,3.64,A,,V*4E
!AIVDO,1,1,,,B3aC3e@0007MnlWWIFp03wW5sP06,0*24
!AIVDM,1,1,,A,13aGt8hP00PN<B:NM:Jtv?vN288q,0*19
$HCHDG,131.27,,,1.57,E*2C
$PFEC,GPatt,,+3.97,-0.97*63
!AIVDM,1,1,,A,13aDAI0P?w<tSF0l4Q@>4?wvPTj0,0*6F
!AIVDM,1,1,,A,13aGFDhP13POd6dNPEA:dgvN24j0,0*54
!AIVDM,1,1,,B,13aFeW@P00POVHnNPHIh0?vN20Ru,0*28
$HCHDG,131.28,,,1.57,E*23
$PFEC,GPatt,,+3.97,-0.99*6D
$HCHDG,131.30,,,1.57,E*2A
$PFEC,GPatt,,+3.97,-0.99*6D
$GPZDA,063215.224,25,04,2017,,*56
!AIVDM,1,1,,A,E>jMjb194U7;2V200000000000007jMJ>sDnp81113v007,4*43
!AIVDM,1,1,,B,13bqwj00000OflNNQ0jerV:P0894,0*79
$HCHDG,131.32,,,1.57,E*28
$PFEC,GPatt,,+3.97,-1.02*6E
$TIROT,15.52,A*38
!AIVDM,1,1,,B,13aEQ5?P0vPNOdnNMjTa4wvNR896,0*57
!AIVDM,1,1,,A,13a;2>02i5PM29pNTlE4OSnP0898,0*66
$HCHDG,131.34,,,1.57,E*2E
$PFEC,GPatt,,+3.97,-1.04*68
$SDDPT,2.06,-1.70,*54
$AGRSA,3.64,A,,V*4E
$HCHDG,131.36,,,1.57,E*2C
$PFEC,GPatt,,+3.98,-1.06*65
$VWVHW,,T,131.36,M,0.00,N,0.00,K*4C
$VWVLW,0.00,N,0.00,N*4C
$GPGBS,063215.00,2.1,1.6,3.2,,,,*47
!AIVDM,1,1,,A,13aDobhP00PNEgfNL04N4?vN2L1@,0*1A
!AIVDM,1,1,,B,13aB99?P0<POENrNU8R4`gvN289?,0*77
$HCHDG,131.37,,,1.57,E*2D
$PFEC,GPatt,,+3.99,-1.08*6A
$GPGLL,5314.199,N,00631.461,E,063215.624,A,A*5F
$GPRMC,063215.624,A,5314.199,N,00631.461,E,0.01,45.00,250417,1.57,E,A*05
$HCHDG,131.38,,,1.57,E*22
$PFEC,GPatt,,+3.99,-1.09*6B
$WIMTW,9.60,C*02
$WIMWV,128.97,R,9.58,N,A*22
$HCHDG,131.38,,,1.57,E*22
$PFEC,GPatt,,+4.00,-1.10*64
$TIROT,10.28,A*30
!AIVDM,1,1,,B,13aI9kPP18PLD42NSg7SFOvP24j0,0*67
!AIVDM,1,1,,B,139fUF700MPOSdBNVcJkQ2fP0D4;,0*0F
!AIVDM,1,1,,B,13`tl4001o0OGI>NV875ITHR04j0,0*01
$HCHDG,131.40,,,1.57,E*2D
$PFEC,GPatt,,+4.01,-1.11*64
$GPVTG,45.00,T,,M,0.01,N,0.01,K,A*0C
$AGRSA,3.64,A,,V*4E
!AIVDM,1,1,,B,15BT=`3P00PNe1pN``P`;alL288p,0*75
!AIVDO,1,1,,,B3aC3e@0007MnlWWIFp03wWUsP06,0*44
!AIVDM,1,1,,B,13aJJ:0P000O?N<NUWnf4?vP0D2t,0*75
$HCHDG,131.40,,,1.57,E*2D
$PFEC,GPatt,,+4.01,-1.12*67
$HCHDG,131.42,,,1.57,E*2F
$PFEC,GPatt,,+4.02,-1.14*62
$HCHDG,131.44,,,1.57,E*29
$PFEC,GPatt,,+4.02,-1.15*63
$GPZDA,063215.945,25,04,2017,,*5A
$HCHDG,131.44,,,1.57,E*29
$PFEC,GPatt,,+4.02,-1.16*60
$TIROT,9.96,A*0D
$HCHDG,131.44,,,1.57,E*29
$PFEC,GPatt,,+4.02,-1.16*60
$SDDPT,1.96,-1.70,*5E
$AGRSA,3.64,A,,V*4E
!AIVDM,1,1,,A,13aI980P00PMm0>NLjah0?vQ289i,0*00
$HCHDG,131.43,,,1.57,E*2E
$PFEC,GPatt,,+4.02,-1.18*6E
$VWVHW,,T,131.43,M,0.00,N,0.00,K*4E
$VWVLW,0.00,N,0.00,N*4C
!AIVDM,1,1,,B,33b:l@7OhL0Ls;:NTmM2PCRR016i,0*46
$HCHDG,131.43,,,1.57,E*2E
$PFEC,GPatt,,+4.02,-1.20*65
$GPGLL,5314.199,N,00631.461,E,063216.345,A,A*5E
$GPRMC,063216.345,A,5314.199,N,00631.461,E,0.01,45.00,250417,1.57,E,A*04
$HCHDG,131.41,,,1.57,E*2C
$PFEC,GPatt,,+4.02,-1.22*67
$WIMTW,9.60,C*02
$WIMWV,118.47,R,10.49,N,A*14
!AIVDM,1,1,,A,13aDBfoP00PLnhbNQ;Uv4?vP20Rb,0*7A
$HCHDG,131.39,,,1.57,E*23
$PFEC,GPatt,,+4.00,-1.23*64
$TIROT,-1.46,A*25
!AIVDM,1,1,,A,35?kED00060OD3pNVkhKcppP011A,0*19
$HCHDG,131.37,,,1.57,E*2D
$PFEC,GPatt,,+3.99,-1.25*65
$GPVTG,45.00,T,,M,0.01,N,0.01,K,A*0C
$AGRSA,3.64,A,,V*4E
$HCHDG,131.36,,,1.57,E*2C
$PFEC,GPatt,,+3.97,-1.27*69
!AIVDO,1,1,,,B3aC3e@0007MnlWWIFps?w`UsP06,0*3C
!AIVDM,1,1,,B,13bo4B00000LIt>NSqfBJbdT0<0v,0*39
$HCHDG,131.33,,,1.57,E*29
$PFEC,GPatt,,+3.95,-1.28*64
!AIVDM,1,1,,B,E02E34?76@1WPab3bPa200000000:us8?9TV@00003v013,4*0A
$HCHDG,131.30,,,1.57,E*2A
$PFEC,GPatt,,+3.94,-1.30*6C
$GPZDA,063216.939,25,04,2017,,*52
!AIVDM,1,1,,B,13aB9a0P000LK0bNSoWLBOvT2D1p,0*28
$HCHDG,131.26,,,1.57,E*2D
$PFEC,GPatt,,+3.93,-1.32*69
$TIROT,-13.75,A*16
!AIVDM,1,1,,A,13aI9LhP00PMEHjNNDK>4?vR24j0,0*79
$HCHDG,131.23,,,1.57,E*28
$PFEC,GPatt,,+3.93,-1.34*6F
$SDDPT,1.96,-1.70,*5E
$AGRSA,3.64,A,,V*4E
$HCHDG,131.20,,,1.57,E*2B
$PFEC,GPatt,,+3.93,-1.34*6F
$VWVHW,,T,131.20,M,0.00,N,0.00,K*4B
$VWVLW,0.00,N,0.00,N*4C
!AIVDM,1,1,,A,13a?SnhP00PN1rFNLeJ00?vR2<0s,0*1F
!AIVDM,2,1,1,B,53aI;P4000010W?7CR0Ptu20LDhDTB0tq>22220t2p12240Ht2Dhj2ADSCkS,0*17
!AIVDM,2,2,1,B,RBkkip88882,2*2D
$HCHDG,131.16,,,1.57,E*2E
$PFEC,GPatt,,+3.94,-1.33*6F
$GPGLL,5314.199,N,00631.461,E,063217.339,A,A*54
$GPRMC,063217.339,A,5314.199,N,00631.461,E,0.01,45.00,250417,1.57,E,A*0E
!AIVDM,1,1,,B,E02E34?76@1WPab3bPa200000000:us8?9TV@00003v013,4*0A
$HCHDG,131.13,,,1.57,E*2B
$PFEC,GPatt,,+3.94,-1.32*6E
$WIMTW,9.50,C*01
$WIMWV,102.97,R,8.59,N,A*2A
$HCHDG,131.10,,,1.57,E*28
$PFEC,GPatt,,+3.95,-1.30*6D
$TIROT,-18.35,A*19
$HCHDG,131.08,,,1.57,E*21
$PFEC,GPatt,,+3.95,-1.29*65
$GPVTG,45.00,T,,M,0.01,N,0.01,K,A*0C
$AGRSA,3.64,A,,V*4E
!AIVDM,1,1,,A,13aGFtgP00PN9T<NLt>00?vT20S=,0*71
!AIVDM,1,1,,B,33P=6TE0000O>i`NU@dGsQtT0DVJ,0*05
$HCHDG,131.04,,,1.57,E*2D
$PFEC,GPatt,,+3.96,-1.27*68
!AIVDO,1,1,,,B3aC3e@0007Mnl7WIFtuGwa5sP06,0*47
$HCHDG,131.00,,,1.57,E*29
$PFEC,GPatt,,+3.97,-1.25*6B
!AIVDM,1,1,,B,13:QrP302F0OrBTNRS:65llV08:i,0*79
$HCHDG,130.96,,,1.57,E*27
$PFEC,GPatt,,+3.99,-1.22*62
$GPZDA,063218.196,25,04,2017,,*51
!AIVDM,1,1,,B,13aAgr?P0MPLKWBNT;2kngvT2<0b,0*4D
$HCHDG,130.93,,,1.57,E*22
$PFEC,GPatt,,+4.00,-1.18*6C
$TIROT,-23.49,A*1A
!AIVDM,1,1,,A,13aD@T0P00PN;UhNLwO00?vT2@:q,0*73
$HCHDG,130.89,,,1.57,E*29
$PFEC,GPatt,,+4.01,-1.14*61
$SDDPT,1.76,-1.70,*50
$AGRSA,3.64,A,,V*4E
$HCHDG,130.86,,,1.57,E*26
$PFEC,GPatt,,+4.03,-1.09*6F
$VWVHW,,T,130.86,M,0.00,N,0.00,K*46
$VWVLW,0.00,N,0.00,N*4C
$HCHDG,130.82,,,1.57,E*22
$PFEC,GPatt,,+4.03,-1.06*60
$GPGLL,5314.199,N,00631.461,E,063218.596,A,A*58
$GPRMC,063218.596,A,5314.199,N,00631.461,E,0.01,45.00,250417,1.57,E,A*02
$HCHDG,130.80,,,1.57,E*20
$PFEC,GPatt,,+4.05,-1.04*64
$WIMTW,9.60,C*02
$WIMWV,143.97,R,7.98,N,A*2D
$HCHDG,130.75,,,1.57,E*2A
$PFEC,GPatt,,+4.05,-0.99*61
$TIROT,-24.76,A*11
!AIVDM,1,1,,B,13aJG?PP00PMWKrNNLrdeOvV2H;:,0*2C
$HCHDG,130.73,,,1.57,E*2C
$PFEC,GPatt,,+4.05,-0.96*6E
$GPVTG,45.00,T,,M,0.01,N,0.01,K,A*0C
$AGRSA,3.64,A,,V*4E
!AIVDM,1,1,,B,13aFg5PP00PN3q@NLcJP0?vV28;>,0*15
$HCHDG,130.70,,,1.57,E*2F
$PFEC,GPatt,,+4.06,-0.93*68
!AIVDM,1,1,,B,13aRqcPP000N5urNMWsG4?vTR0S0,0*02
!AIVDM,1,1,,A,13aDvt001SPO@;RNV=gEflvR00S=,0*10
!AIVDO,1,1,,,B3aC3e@0007MnlWWIFlwCwaUsP06,0*59
$HCHDG,130.66,,,1.57,E*28
$PFEC,GPatt,,+4.05,-0.91*69
$HCHDG,130.63,,,1.57,E*2D
$PFEC,GPatt,,+4.05,-0.89*60
$GPZDA,063219.199,25,04,2017,,*5F
!AIVDM,1,1,,B,13`o<d0P000LncPNQ;vIQwvV0@;H,0*2F
$HCHDG,130.60,,,1.57,E*2E
$PFEC,GPatt,,+4.04,-0.88*60
$TIROT,-24.66,A*10
!AIVDM,1,1,,A,13aC20hP000N2RjNMg@h0?vTP8;M,0*37
!AIVDM,1,1,,B,13aL=s0P00PMC><NNA5N4?vV28;N,0*16
!AIVDM,1,1,,A,13aGFWhP00PN<H2NLvON4?vVR8;N,0*32
$HCHDG,130.57,,,1.57,E*2A
$PFEC,GPatt,,+4.04,-0.87*6F
$SDDPT,2.05,-1.70,*57
$AGRSA,3.64,A,,V*4E
!AIVDM,1,1,,B,13aL?;mP0hPMiAPNOQ0ubgvV2@;O,0*38
!AIVDM,1,1,,B,13aI;P?P00PLK:<NSfpdF?v`20Sf,0*6D
$HCHDG,130.52,,,1.57,E*2F
$PFEC,GPatt,,+4.04,-0.85*6D
$VWVHW,,T,130.52,M,0.00,N,0.00,K*4F
$VWVLW,0.00,N,0.00,N*4C
$GPGBS,063219.00,2.1,1.6,3.2,,,,*4B
$HCHDG,130.49,,,1.57,E*25
$PFEC,GPatt,,+4.03,-0.85*6A
$GPGLL,5314.199,N,00631.461,E,063219.599,A,A*56
$GPRMC,063219.599,A,5314.199,N,00631.461,E,0.01,45.00,250417,1.57,E,A*0C
$HCHDG,130.47,,,1.57,E*2B
$PFEC,GPatt,,+4.02,-0.85*6B
$WIMTW,9.50,C*01
$WIMWV,119.97,R,8.28,N,A*26
!AIVDM,1,1,,A,E>jN6Ui47a4e7W@8LP00000000008T;E?2Asp00003v010,4*69
$HCHDG,130.45,,,1.57,E*29
$PFEC,GPatt,,+4.01,-0.87*6A
$TIROT,-23.35,A*11
!AIVDM,1,1,,B,13aN3NPP00PLHVtNSqoc5gv`2Sws,0*42
$HCHDG,130.41,,,1.57,E*2D
$PFEC,GPatt,,+4.00,-0.87*6B
$GPVTG,45.00,T,,M,0.01,N,0.01,K,A*0C
$AGRSA,3.64,A,,V*4E
!AIVDM,1,1,,B,33aFfVUP00PN3w:NLcCh0?v`2Dk:,0*23
!AIVDM,1,1,,A,E>jN6Ui47a4e7W@8LP00000000008T;E?2Asp00003v010,4*69
$HCHDG,130.38,,,1.57,E*23
$PFEC,GPatt,,+3.99,-0.88*63
!AIVDM,1,1,,A,13aIjNPP00POU2pNIG;P0?v`RKRi,0*30
!AIVDO,1,1,,,B3aC3e@0007Mnm7WIFe0wwb5sP06,0*21
$HCHDG,130.36,,,1.57,E*2D
$PFEC,GPatt,,+3.99,-0.91*6B
$HCHDG,130.34,,,1.57,E*2F
$PFEC,GPatt,,+3.98,-0.93*68
$GPZDA,063219.944,25,04,2017,,*57
!AIVDM,2,1,2,A,53aj>242Bl1q09080018DA<8u8L000000000000O1@r7756A0014854R@C4h,0*49
!AIVDM,2,2,2,A,00000000001,2*27
!AIVDM,1,1,,A,13aIi;PP00PMwOlNLu7h0?v`20SO,0*38
!AIVDM,1,1,,B,35?kED00040OD3bNVkg;EHnV0000,0*02
!AIVDM,1,1,,B,13aDpKhP00POeb@NPI@r0gvb24j0,0*23
$HCHDG,130.32,,,1.57,E*29
$PFEC,GPatt,,+3.99,-0.96*6C
$TIROT,-21.28,A*1F
!AIVDM,1,1,,B,13aI9a@P000O@NBNU;UHDOvb0<37,0*5E
!AIVDM,1,1,,A,33b:l@7OhL0Ls<BNTmO2W3jb0000,0*19
$HCHDG,130.31,,,1.57,E*2A
$PFEC,GPatt,,+3.99,-0.97*6D
$SDDPT,2.05,-1.70,*57
$AGRSA,3.64,A,,V*4E
!AIVDM,1,1,,A,402E34Qv5<VPDPL;CNNVEEG000S:,0*12
!AIVDM,1,1,,B,13aDqmhP00PN7kjNMSDu6?v6RD17,0*36
$HCHDG,130.29,,,1.57,E*23
!AIVDM,1,1,,A,402E34Av5<VPDPOIQHNQ=5700H<8,0*0D
$PFEC,GPatt,,+3.99,-1.01*63
$VWVHW,,T,130.29,M,0.00,N,0.00,K*43
$VWVLW,0.00,N,0.00,N*4C
$HCHDG,130.27,,,1.57,E*2D
$PFEC,GPatt,,+3.99,-1.03*61
$GPGLL,5314.199,N,00631.461,E,063220.344,A,A*5A
$GPRMC,063220.344,A,5314.199,N,00631.461,E,0.01,45.00,250417,1.57,E,A*00
!AIVDM,1,1,,A,13ampJ500D0LF20NUO52u1tb0000,0*5A
$HCHDG,130.26,,,1.57,E*2C
$PFEC,GPatt,,+3.99,-1.06*64
$WIMTW,9.50,C*01
$WIMWV,147.46,R,11.19,N,A*1B
$HCHDG,130.25,,,1.57,E*2F
$PFEC,GPatt,,+3.99,-1.08*6A
$TIROT,-16.94,A*1C
$HCHDG,130.23,,,1.57,E*29
$PFEC,GPatt,,+3.99,-1.10*63
$GPVTG,45.00,T,,M,0.01,N,0.01,K,A*0C
$AGRSA,3.64,A,,V*4E
!AIVDM,1,1,,A,13aL>b0P00PLmSnNQ?stwgvb20Rj,0*60
$HCHDG,130.22,,,1.57,E*28
$PFEC,GPatt,,+3.99,-1.12*61
!AIVDM,1,1,,A,13aB;2OP00PLK<vNSoq00?v`2@<N,0*26
$HCHDG,130.20,,,1.57,E*2A
$PFEC,GPatt,,+4.00,-1.15*61
!AIVDO,1,1,,,B3aC3e@0007MnmWWIFT03wbUsP06,0*54
!AIVDM,2,1,3,B,53aj>242Bl1q09080018DA<8u8L000000000000O1@r7756A0014854R@C4h,0*4B
!AIVDM,2,2,3,B,00000000001,2*25
!AIVDM,1,1,,A,402E3OQv5<VPD0OOaVNTs5i000S:,0*2E
$HCHDG,130.18,,,1.57,E*21
$PFEC,GPatt,,+4.00,-1.18*6C
$GPZDA,063220.911,25,04,2017,,*5D
$HCHDG,130.17,,,1.57,E*2E
$PFEC,GPatt,,+4.01,-1.18*6D
$TIROT,-17.41,A*15
!AIVDM,1,1,,B,13aGuJP000PN>9LNLUVv458b24j0,0*7B
$HCHDG,130.16,,,1.57,E*2F
$PFEC,GPatt,,+4.02,-1.19*6F
$SDDPT,1.80,-1.70,*59
$AGRSA,3.64,A,,V*4E
!AIVDM,1,1,,A,139lM30P00PLq>@NN2FP0?vb24j0,0*1F
$HCHDG,130.16,,,1.57,E*2F
$PFEC,GPatt,,+4.02,-1.19*6F
$VWVHW,,T,130.16,M,0.00,N,0.00,K*4F
$VWVLW,0.00,N,0.00,N*4C
$HCHDG,130.15,,,1.57,E*2C
$PFEC,GPatt,,+4.02,-1.19*6F
$GPGLL,5314.199,N,00631.461,E,063221.311,A,A*5B
$GPRMC,063221.311,A,5314.199,N,00631.461,E,0.01,45.00,250417,1.57,E,A*01
!AIVDM,1,1,,B,33aIjI0P00PO`<lNPOeJV?vd27QS,0*63
!AIVDM,2,1,4,A,53aB;2D000010C?SO00DDm<0000000000000000U0`?23u;@05S0EEiDTkki,0*0A
!AIVDM,2,2,4,A,p0UBE1CR0@2,2*60
$HCHDG,130.14,,,1.57,E*2D
$PFEC,GPatt,,+4.02,-1.18*6E
$WIMTW,9.50,C*01
$WIMWV,141.97,R,12.98,N,A*1B
$HCHDG,130.15,,,1.57,E*2C
$PFEC,GPatt,,+4.02,-1.15*63
$TIROT,-10.38,A*1C
$HCHDG,130.16,,,1.57,E*2F
$PFEC,GPatt,,+4.03,-1.12*65
$GPVTG,45.00,T,,M,0.03,N,0.05,K,A*0A
$AGRSA,3.64,A,,V*4E
$HCHDG,130.17,,,1.57,E*2E
$PFEC,GPatt,,+4.04,-1.10*60
$HCHDG,130.19,,,1.57,E*20
$PFEC,GPatt,,+4.06,-1.05*66
!AIVDO,1,1,,,B3aC3e@0007MnmWWIFPwgwc5sP06,0*22
!AIVDM,1,1,,A,13alqr0P00PLjmnNT2BWhgvd28=5,0*1D
$HCHDG,130.22,,,1.57,E*28
$PFEC,GPatt,,+4.06,-1.01*62
$GPZDA,063222.211,25,04,2017,,*54
!AIVDM,1,1,,A,33aC4<UP00PLlB0NQBoh0?vd2Dqb,0*29
!AIVDM,1,1,,B,E>jN6<?76@1WPab3bPa2@LtP0000:usB?9TV@00003v01<,4*07
$HCHDG,130.25,,,1.57,E*2F
$PFEC,GPatt,,+4.06,-0.96*6D
$TIROT,6.74,A*0E
$HCHDG,130.30,,,1.57,E*2B
$PFEC,GPatt,,+4.06,-0.90*6B
$SDDPT,1.94,-1.70,*5C
$AGRSA,3.64,A,,V*4E
!AIVDM,1,1,,A,B3aJICP00076P7W`t:AGowbUkP06,0*1D
$HCHDG,130.35,,,1.57,E*2E
$PFEC,GPatt,,+4.07,-0.85*6E
$VWVHW,,T,130.35,M,0.00,N,0.00,K*4E
$VWVLW,0.00,N,0.00,N*4C
!AIVDM,1,1,,B,13aKUWhP00PN<:bNLih>4?vd2@=E,0*63
$HCHDG,130.41,,,1.57,E*2D
$PFEC,GPatt,,+4.07,-0.80*6B
$GPGLL,5314.199,N,00631.461,E,063222.611,A,A*5D
$GPRMC,063222.611,A,5314.199,N,00631.461,E,0.03,45.00,250417,1.57,E,A*05
$HCHDG,130.45,,,1.57,E*29
$PFEC,GPatt,,+4.07,-0.76*62
$WIMTW,9.50,C*01
$WIMWV,153.97,R,12.09,N,A*10
!AIVDM,1,1,,A,13aGCk@P0?PODldNU95c6?vdRH=M,0*63
$HCHDG,130.50,,,1.57,E*2D
$PFEC,GPatt,,+4.06,-0.72*67
$TIROT,23.38,A*31
!AIVDM,1,1,,A,13aC36@P00PMdnbNLqTP0?vf28=O,0*76
$HCHDG,130.54,,,1.57,E*29
$PFEC,GPatt,,+4.06,-0.71*64
$GPVTG,45.00,T,,M,0.03,N,0.05,K,A*0A
$AGRSA,3.64,A,,V*4E
!AIVDM,1,1,,A,13aEOQPP00PMg9tNLj3h0?vf20Rj,0*3F
$HCHDG,130.60,,,1.57,E*2E
$PFEC,GPatt,,+4.05,-0.67*60
!AIVDM,1,1,,B,33aL?J@P000NM>`NKdL2Rgvh03iQ,0*0F
!AIVDM,2,1,5,A,53aEQ54000010SWO7D0ptl4@U<0000000000001?98<53t@PJ00000000000,0*35
!AIVDM,2,2,5,A,00000000003,2*22
$HCHDG,130.66,,,1.57,E*28
$PFEC,GPatt,,+4.05,-0.64*63
!AIVDO,1,1,,,B3aC3e@0007Mnn7WIFPv?wcUsP06,0*78
!AIVDM,1,1,,A,13aB;=POh10MDKhNVg;pJ8Rh08=e,0*71
$HCHDG,130.70,,,1.57,E*2F
$PFEC,GPatt,,+4.04,-0.62*64
$GPZDA,063223.175,25,04,2017,,*54
$HCHDG,130.75,,,1.57,E*2A
$PFEC,GPatt,,+4.04,-0.60*66
$TIROT,29.90,A*39
$HCHDG,130.80,,,1.57,E*20
$PFEC,GPatt,,+4.04,-0.60*66
$SDDPT,2.04,-1.70,*56
$AGRSA,3.64,A,,V*4E
!AIVDM,1,1,,A,13bNqJ?P00PM1StNUu0PPgvh2<1P,0*1F
!AIVDM,1,1,,A,13ku9=hPA9PLpm0Nbu>`6Fhh28=o,0*60
$HCHDG,130.85,,,1.57,E*25
$PFEC,GPatt,,+4.04,-0.60*66
$VWVHW,,T,130.85,M,0.00,N,0.00,K*45
$VWVLW,0.00,N,0.00,N*4C
$GPGBS,063223.00,2.1,1.6,3.2,,,,*42
!AIVDM,1,1,,A,13aN1RHP000M4g8NPJf@2gv40D0:,0*7D
$HCHDG,130.90,,,1.57,E*21
$PFEC,GPatt,,+4.03,-0.61*60
$GPGLL,5314.199,N,00631.461,E,063223.575,A,A*5D
$GPRMC,063223.575,A,5314.199,N,00631.461,E,0.03,45.00,250417,1.57,E,A*05
$HCHDG,130.94,,,1.57,E*25
$PFEC,GPatt,,+4.03,-0.62*63
!AIVDM,1,1,,B,13aJI@0P000NGkbNKrGTg?vh0H>0,0*01
$WIMTW,9.50,C*01
$WIMWV,149.97,R,10.88,N,A*10
!AIVDM,1,1,,A,35?kED00050OD3FNVkh;S`nf00rP,0*07
$HCHDG,131.00,,,1.57,E*29
$PFEC,GPatt,,+4.03,-0.64*65
$TIROT,33.47,A*38
!AIVDM,1,1,,A,402E:viv5<VPGPLq1dNN1hQ028>4,0*4E
!AIVDM,1,1,,A,402E;2Qv5<VPGPNk?lNK;sA020S:,0*42
!AIVDM,1,1,,B,13@=8V6000PO<j<NUKGD6SBr00Si,0*7B
$HCHDG,131.05,,,1.57,E*2C
$PFEC,GPatt,,+4.03,-0.66*67
$GPVTG,45.00,T,,M,0.05,N,0.09,K,A*00
$AGRSA,3.64,A,,V*4E
!AIVDM,1,1,,A,13aENjPP00PLLvvNMWRdDOvf2<0e,0*56
$HCHDG,131.10,,,1.57,E*28
$PFEC,GPatt,,+4.03,-0.69*68
!AIVDM,1,1,,A,H3aJICQ0thiEP00000000000002,2*7D
$HCHDG,131.15,,,1.57,E*2D
$PFEC,GPatt,,+4.03,-0.72*62
!AIVDM,1,1,,A,83aEQ50j2d<dd=MN=Qb@agaE0000,0*0F
!AIVDM,1,1,,B,33b:l@7OhK0Ls=jNTmQBdCvj00nP,0*33
!AIVDO,1,1,,,B3aC3e@00@7Mnn7WIFTtSwd5sP06,0*05
$HCHDG,131.20,,,1.57,E*2B
$PFEC,GPatt,,+4.03,-0.75*65
$GPZDA,063223.914,25,04,2017,,*5B
!AIVDM,2,1,6,A,53aC4<T000010W?KG80`4@D0000000000000000U3@033u4iH2VSmE2hCD88,0*62
!AIVDM,2,2,6,A,88888888883,2*21
!AIVDM,1,1,,A,13:QrP302F0OrH<NRRAn3Tlj0D5D,0*66
!AIVDM,1,1,,A,13`m;j?P00PNaPFNM:e@0?vh2<2>,0*71
$HCHDG,131.22,,,1.57,E*29
$PFEC,GPatt,,+4.03,-0.76*66
$TIROT,29.39,A*3A
$HCHDG,131.22,,,1.57,E*29
$PFEC,GPatt,,+4.03,-0.79*69
$SDDPT,2.04,-1.70,*56
$AGRSA,3.64,A,,V*4E
$HCHDG,131.21,,,1.57,E*2A
$PFEC,GPatt,,+4.05,-0.81*68
$VWVHW,,T,131.21,M,0.00,N,0.00,K*4A
$VWVLW,0.00,N,0.00,N*4C
!AIVDM,1,1,,A,D02E:viL0Nfp00N00<,4*52
!AIVDM,1,1,,B,D02E34QGLg6D000000000000002,2*5E
!AIVDM,1,1,,B,D02E34AH0g6D000000000000002,2*3D
$HCHDG,131.19,,,1.57,E*21
$PFEC,GPatt,,+4.04,-0.82*6A
$GPGLL,5314.199,N,00631.461,E,063224.314,A,A*5B
$GPRMC,063224.314,A,5314.199,N,00631.461,E,0.05,45.00,250417,1.57,E,A*05
$HCHDG,131.17,,,1.57,E*2F
$PFEC,GPatt,,+4.04,-0.83*6B
$WIMTW,9.50,C*01
$WIMWV,165.96,R,9.38,N,A*2C
!AIVDM,1,1,,A,13`tl4001o0OGS`NV7>mHlJl00SR,0*42
!AIVDM,1,1,,A,13aDqr?P000N7?4NLmkf4?vh04j0,0*06
!AIVDM,1,1,,A,15BT=`3P00PNe1pN``P`;alf20Sg,0*28
$HCHDG,131.16,,,1.57,E*2E
$PFEC,GPatt,,+4.04,-0.84*6C
$TIROT,3.25,A*0F
!AIVDM,1,1,,A,E>jMjb194U7;2V200000000000007jMJ>sDnp81113v007,4*43
!AIVDM,1,1,,B,13aDAI0P?w<tSF0l4Q@>4?wvPh>d,0*50
$HCHDG,131.13,,,1.57,E*2B
$PFEC,GPatt,,+4.03,-0.85*6A
$GPVTG,45.00,T,,M,0.05,N,0.09,K,A*00
$AGRSA,3.64,A,,V*4E
!AIVDM,1,1,,A,E>jMjb194U7;2V200000000000007jMJ>sDnp81113v007,4*43
!AIVDM,1,1,,B,13fK3j?P00PNbi6NKCi>4?vh28>f,0*49
$HCHDG,131.10,,,1.57,E*28
$PFEC,GPatt,,+4.02,-0.87*69
!AIVDM,1,1,,A,13aGtWwP0vPLe6>NMoWC6gvj28>j,0*5A
$HCHDG,131.08,,,1.57,E*21
$PFEC,GPatt,,+4.01,-0.89*64
$HCHDG,131.05,,,1.57,E*2C
$PFEC,GPatt,,+3.99,-0.91*6B
$GPZDA,063224.890,25,04,2017,,*51
!AIVDO,1,1,,,B3aC3e@0007MnnWWIF`rGwdUsP06,0*53
$HCHDG,131.04,,,1.57,E*2D
$PFEC,GPatt,,+3.97,-0.95*61
$TIROT,-7.25,A*26
$HCHDG,131.03,,,1.57,E*2A
$PFEC,GPatt,,+3.96,-0.97*62
$SDDPT,1.95,-1.70,*5D
$AGRSA,3.64,A,,V*4E
$HCHDG,131.01,,,1.57,E*28
$PFEC,GPatt,,+3.95,-0.97*61
$VWVHW,,T,131.01,M,0.00,N,0.00,K*48
$VWVLW,0.00,N,0.00,N*4C
!AIVDM,1,1,,B,13aDobhP00PNEghNL04v4?vj24j0,0*58
$HCHDG,131.01,,,1.57,E*28
$PFEC,GPatt,,+3.94,-1.00*6F
$GPGLL,5314.199,N,00631.461,E,063225.290,A,A*57
$GPRMC,063225.290,A,5314.199,N,00631.461,E,0.05,45.00,250417,1.57,E,A*09
$HCHDG,131.01,,,1.57,E*28
$PFEC,GPatt,,+3.93,-1.02*6A
$WIMTW,9.50,C*01
$WIMWV,153.46,R,9.89,N,A*2E
$HCHDG,131.00,,,1.57,E*29
$PFEC,GPatt,,+3.92,-1.03*6A
$TIROT,-3.07,A*22
$HCHDG,130.99,,,1.57,E*28
$PFEC,GPatt,,+3.91,-1.03*69
$GPVTG,45.00,T,,M,0.05,N,0.09,K,A*00
$AGRSA,3.64,A,,V*4E
$HCHDG,130.98,,,1.57,E*29
$PFEC,GPatt,,+3.91,-1.02*68
!AIVDM,2,1,7,A,53a?Snl000010OWK700P5Hu8pDp000000000000U2H941t0Ht0QlSkRCQiCP,0*3E
!AIVDM,2,2,7,A,00000000002,2*21
!AIVDM,2,1,8,B,53cn1v02@D;8T<uR220PU=04pT>0N22222222216I`HF@5<60KAACDj0EQC`,0*0C
!AIVDM,2,2,8,B,88888888880,2*2F
$HCHDG,130.97,,,1.57,E*26
$PFEC,GPatt,,+3.92,-1.03*6A
!AIVDM,1,1,,B,35?kED00060OD3FNVkgKJpnj013i,0*04
$HCHDG,130.96,,,1.57,E*27
$PFEC,GPatt,,+3.94,-1.03*6C
$GPZDA,063226.191,25,04,2017,,*5B
!AIVDO,1,1,,,B3aC3e@0007Mno7WIFdoCwe5sP06,0*4E
$HCHDG,130.96,,,1.57,E*27
$PFEC,GPatt,,+3.96,-1.03*6E
$TIROT,-3.04,A*21
!AIVDM,1,1,,B,13aGFDhP13POcrvNPEErewvl20RH,0*3D
$HCHDG,130.94,,,1.57,E*25
$PFEC,GPatt,,+3.98,-1.02*61
$SDDPT,1.95,-1.70,*5D
$AGRSA,3.64,A,,V*4E
$HCHDG,130.93,,,1.57,E*22
$PFEC,GPatt,,+3.99,-1.00*62
$VWVHW,,T,130.93,M,0.00,N,0.00,K*42
$VWVLW,0.00,N,0.00,N*4C
$HCHDG,130.92,,,1.57,E*23
$PFEC,GPatt,,+3.99,-0.99*63
$GPGLL,5314.199,N,00631.461,E,063226.591,A,A*52
$GPRMC,063226.591,A,5314.199,N,00631.461,E,0.05,45.00,250417,1.57,E,A*0C
$HCHDG,130.92,,,1.57,E*23
$PFEC,GPatt,,+4.01,-0.97*6B
$WIMTW,9.50,C*01
$WIMWV,140.97,R,10.18,N,A*10
!AIVDM,1,1,,A,13aQdM0P00PNKhFNKiah0?vl24j0,0*0A
!AIVDM,1,1,,B,13a;2>0ti5PM2C@NTkt4TSrn0H?k,0*43
$HCHDG,130.93,,,1.57,E*22
$PFEC,GPatt,,+4.03,-0.95*6B
$TIROT,-0.74,A*25
!AIVDM,2,1,9,A,53aL<AD000010?O?O<0DhU`48E@R1L000000000U3h332u;DA0AlSkRCQiC`,0*54
!AIVDM,2,2,9,A,88000000003,2*2E
$HCHDG,130.92,,,1.57,E*23
$PFEC,GPatt,,+4.03,-0.93*6D
$GPVTG,45.00,T,,M,0.03,N,0.05,K,A*0A
$AGRSA,3.64,A,,V*4E
!AIVDM,1,1,,B,13P=tWP000POV7PNPHI3tjnl2D28,0*6B
!AIVDM,1,1,,A,33b:l@7OhK0Ls>rNTmRjil8n00w1,0*10
$HCHDG,130.92,,,1.57,E*23
$PFEC,GPatt,,+4.03,-0.91*6F
!AIVDM,1,1,,B,13aI980P00PMm04NLjbP0?vo24j0,0*0A
$HCHDG,130.94,,,1.57,E*25
$PFEC,GPatt,,+4.03,-0.88*67
$HCHDG,130.94,,,1.57,E*25
$PFEC,GPatt,,+4.03,-0.87*68
$GPZDA,063227.147,25,04,2017,,*51
!AIVDO,1,1,,,B3aC3e@0007Mnp7WIFhr3weUsP06,0*50
!AIVDM,1,1,,B,13aGFtgP00PN9TBNLt=@0?vn20SQ,0*29
$HCHDG,130.96,,,1.57,E*27
$PFEC,GPatt,,+4.02,-0.86*68
$TIROT,5.49,A*03
!AIVDM,1,1,,B,13aI9LhP01PMEHfNNDJv4?vn2@@:,0*56
$HCHDG,130.97,,,1.57,E*26
$PFEC,GPatt,,+4.01,-0.86*6B
$SDDPT,2.00,-1.70,*52
$AGRSA,3.64,A,,V*4E
$HCHDG,130.98,,,1.57,E*29
$PFEC,GPatt,,+4.01,-0.85*68
$VWVHW,,T,130.98,M,0.00,N,0.00,K*49
$VWVLW,0.00,N,0.00,N*4C
$GPGBS,063227.00,2.1,1.6,3.2,,,,*46
!AIVDM,1,1,,A,13aDCB0P00POARHNUK:sc?vnR0Sl,0*24
$HCHDG,130.98,,,1.57,E*29
$PFEC,GPatt,,+3.99,-0.84*6F
$GPGLL,5314.199,N,00631.461,E,063227.547,A,A*58
$GPRMC,063227.547,A,5314.199,N,00631.461,E,0.03,45.00,250417,1.57,E,A*00
!AIVDM,1,1,,A,83aC4<Pj2d<dd=>LMPPPN3WEOAL0,0*18
$HCHDG,131.01,,,1.57,E*28
$PFEC,GPatt,,+3.98,-0.84*6E
$WIMTW,9.50,C*01
$WIMWV,150.96,R,10.59,N,A*15
!AIVDM,1,1,,B,E02E34?76@1WPab3bPa200000000:us8?9TV@00003v013,4*0A
$HCHDG,131.01,,,1.57,E*28
$PFEC,GPatt,,+3.96,-0.84*60
$TIROT,9.79,A*0C
!AIVDM,1,1,,A,13bo4B00000LItDNSqf3vbdp0<0v,0*29
!AIVDM,2,1,0,B,53aQ61D000010;GG;T0HU<RlQDq@E8000000000U10>33tvh<711C1VRBS00,0*1C
$HCHDG,131.02,,,1.57,E*2B
$PFEC,GPatt,,+3.94,-0.84*62
$GPVTG,45.00,T,,M,0.03,N,0.05,K,A*0A
$AGRSA,3.64,A,,V*4E
!AIVDM,2,2,0,B,00000000003,2*24
!AIVDM,1,1,,A,83aL<A@j2dt=<=tL@0a@I3W@3800,0*46
$HCHDG,131.02,,,1.57,E*2B
$PFEC,GPatt,,+3.93,-0.84*65
!AIVDM,1,1,,B,13aGsE@P00PO@1LNU<@00?vp28@R,0*43
!AIVDM,1,1,,A,H3aJICTT0000000@6mijk0185220,0*03
$HCHDG,131.01,,,1.57,E*28
$PFEC,GPatt,,+3.92,-0.84*64
!AIVDM,1,1,,A,13aN3NPP00PLHW0NSqo00?vp20S?,0*11
!AIVDM,1,1,,A,83aB;=Pj2d<tMt=fN0LHN?`51@00,0*61
!AIVDM,1,1,,A,13aAgr?P0MPLKcNNT:w3rOvp2@@`,0*74
$HCHDG,131.00,,,1.57,E*29
$PFEC,GPatt,,+3.91,-0.85*66
$GPZDA,063228.136,25,04,2017,,*58
!AIVDM,1,1,,A,35ATSJ50000Pj`2NQ:oTaHFn0000,0*6E
!AIVDO,1,1,,,B3aC3e@0007Mnp7WIFlpGwf5sP06,0*41
$HCHDG,131.01,,,1.57,E*28
!AIVDM,1,1,,B,13aDvt001RPO@AjNV<uUjlvl0@@d,0*5B
$PFEC,GPatt,,+3.89,-0.85*6F
$TIROT,3.07,A*0F
!AIVDM,1,1,,B,13a?SnhP00PN1rHNLeJ00?vp24j0,0*21
$HCHDG,131.01,,,1.57,E*28
$PFEC,GPatt,,+3.89,-0.86*6C
$SDDPT,2.00,-1.70,*52
$AGRSA,3.64,A,,V*4E
!AIVDM,1,1,,B,13aD@T0P00PN;UfNLwN@0?vp2H@k,0*43
$HCHDG,131.00,,,1.57,E*29
$PFEC,GPatt,,+3.89,-0.85*6F
$VWVHW,,T,131.00,M,0.00,N,0.00,K*49
$VWVLW,0.00,N,0.00,N*4C
!AIVDM,1,1,,B,13bBDf0P00PLIAJNSqOv4?vp28@n,0*67
$HCHDG,131.01,,,1.57,E*28
$PFEC,GPatt,,+3.90,-0.84*66
$GPGLL,5314.199,N,00631.461,E,063228.536,A,A*51
$GPRMC,063228.536,A,5314.199,N,00631.461,E,0.03,45.00,250417,1.57,E,A*09
!AIVDM,1,1,,A,83a?Snhj2P00000000RHISWE5`00,0*69
$HCHDG,131.01,,,1.57,E*28
$PFEC,GPatt,,+3.91,-0.83*60
$WIMTW,9.50,C*01
$WIMWV,152.96,R,11.07,N,A*1D
!AIVDM,1,1,,A,13aJG?PP00PMWKtNNLr<gOvr20S<,0*41
!AIVDM,1,1,,B,B3aJJN00087QgEWW=Ml03wf5kP06,0*31
!AIVDM,1,1,,B,13aGuEh0000LGipNSu6tA8Nr08@v,0*1A
$HCHDG,131.01,,,1.57,E*28
$PFEC,GPatt,,+3.91,-0.83*60
$TIROT,2.08,A*01
$HCHDG,131.01,,,1.57,E*28
!AIVDM,1,1,,A,13aL=s0P00PMC>>NNA5v4?vr28A3,0*0C
$PFEC,GPatt,,+3.91,-0.83*60
$GPVTG,45.00,T,,M,0.03,N,0.05,K,A*0A
$AGRSA,3.64,A,,V*4E
!AIVDM,1,1,,A,13aL?;mP0dPMi@fNOQLupOvr2@A4,0*63
$HCHDG,131.01,,,1.57,E*28
$PFEC,GPatt,,+3.92,-0.84*64
$HCHDG,131.02,,,1.57,E*2B
$PFEC,GPatt,,+3.93,-0.84*65
$HCHDG,131.02,,,1.57,E*2B
$PFEC,GPatt,,+3.92,-0.85*65
$GPZDA,063229.143,25,04,2017,,*5B
!AIVDM,1,1,,A,13aRqcPP000N5uhNMWro4?vpR4j0,0*2B
!AIVDM,1,1,,B,13aIi;PP00PMwOrNLu6P0?vr2D0T,0*02
$HCHDG,131.01,,,1.57,E*28
$PFEC,GPatt,,+3.93,-0.85*64
$TIROT,1.89,A*0B
!AIVDO,1,1,,,B3aC3e@0007MnpWWIFp03wfUsP06,0*69
$HCHDG,131.04,,,1.57,E*2D
$PFEC,GPatt,,+3.93,-0.86*67
$SDDPT,1.98,-1.70,*50
$AGRSA,3.64,A,,V*4E
!AIVDM,1,1,,A,33aL<L5P00PMwFdNLuP00?vr2Ddb,0*3A
$HCHDG,131.03,,,1.57,E*2A
$PFEC,GPatt,,+3.91,-0.86*65
$VWVHW,,T,131.03,M,0.00,N,0.00,K*4A
$VWVLW,0.00,N,0.00,N*4C
!AIVDM,1,1,,A,13`o<d0P000Lnc>NQ;wIl?vr0<0k,0*46
!AIVDM,1,1,,A,13aFg5PP00PN3q>NLcJh0?vr2HAK,0*0B
$HCHDG,131.01,,,1.57,E*28
$PFEC,GPatt,,+3.91,-0.87*64
$GPGLL,5314.199,N,00631.461,E,063229.543,A,A*52
$GPRMC,063229.543,A,5314.199,N,00631.461,E,0.03,45.00,250417,1.57,E,A*0A
$HCHDG,131.00,,,1.57,E*29
!AIVDM,1,1,,B,13aL>b0P00PLmSnNQ?s=0wvt2@AQ,0*33
$PFEC,GPatt,,+3.90,-0.87*65
$WIMTW,9.60,C*02
$WIMWV,119.47,R,9.58,N,A*2D
$HCHDG,131.00,,,1.57,E*29
$PFEC,GPatt,,+3.91,-0.89*6A
$TIROT,-0.59,A*2A
!AIVDM,1,1,,B,13aC20hP000N2RjNMg@h0?vpP@AV,0*09
$HCHDG,130.98,,,1.57,E*29
$PFEC,GPatt,,+3.91,-0.90*62
$GPVTG,45.00,T,,M,0.03,N,0.05,K,A*0A
$AGRSA,3.64,A,,V*4E
!AIVDM,1,1,,B,33b:l@7OhK0Ls@0NTmT2nlBt0000,0*50
$HCHDG,130.95,,,1.57,E*24
$PFEC,GPatt,,+3.92,-0.92*63
!AIVDM,1,1,,A,35?kED00080OD2hNVkhK98nr0000,0*51
$HCHDG,130.94,,,1.57,E*25
$PFEC,GPatt,,+3.94,-0.95*62
!AIVDM,1,1,,B,13:QrP302F0OrMhNRQI62llv0@Ai,0*1F
$HCHDG,130.93,,,1.57,E*22
$PFEC,GPatt,,+3.95,-0.96*60
$GPZDA,063230.150,25,04,2017,,*51
!AIVDM,1,1,,B,13aGFWhP00PN<GtNLvO>4?vtR<0W,0*3C
!AIVDM,1,1,,A,E>jN6Ui47a4e7W@8LP00000000008T;E?2Asp00003v010,4*69
$HCHDG,130.90,,,1.57,E*21
$PFEC,GPatt,,+3.96,-0.97*62
$TIROT,-8.27,A*2B
!AIVDO,1,1,,,B3aC3e@0007MnpWWIFtoWwg5sP06,0*37
$HCHDG,130.89,,,1.57,E*29
$PFEC,GPatt,,+3.96,-0.99*6C
$SDDPT,2.03,-1.70,*51
$AGRSA,3.64,A,,V*4E
!AIVDM,1,1,,B,402E34Qv5<VPNPL;CNNVEEG000S:,0*1B
$HCHDG,130.88,,,1.57,E*28
!AIVDM,1,1,,B,402E34Av5<VPNPOIQHNQ=5700HAw,0*36
$PFEC,GPatt,,+3.97,-1.00*6C
$VWVHW,,T,130.88,M,0.00,N,0.00,K*48
$VWVLW,0.00,N,0.00,N*4C
!AIVDM,1,1,,A,13aDqmhP00PN7l:NMSFM6?vJR@B2,0*56
$HCHDG,130.85,,,1.57,E*25
$PFEC,GPatt,,+3.98,-1.02*61
$GPGLL,5314.199,N,00631.461,E,063230.550,A,A*58
$GPRMC,063230.550,A,5314.199,N,00631.461,E,0.03,45.00,250417,1.57,E,A*00
$HCHDG,130.83,,,1.57,E*23
$PFEC,GPatt,,+3.98,-1.04*67
$WIMTW,9.50,C*01
$WIMWV,145.46,R,10.18,N,A*19
!AIVDM,1,1,,A,13`hBPS005PLlmdNc5>PA9Br84j0,0*49
$HCHDG,130.82,,,1.57,E*22
$PFEC,GPatt,,+3.98,-1.05*66
$TIROT,-7.71,A*27
!AIVDM,1,1,,B,13aB;2OP00PLK<vNSoq00?vt24j0,0*6D
$HCHDG,130.80,,,1.57,E*20
$PFEC,GPatt,,+3.98,-1.05*66
$GPVTG,45.00,T,,M,0.03,N,0.05,K,A*0A
$AGRSA,3.64,A,,V*4E
$HCHDG,130.78,,,1.57,E*27
$PFEC,GPatt,,+3.98,-1.04*67
$HCHDG,130.75,,,1.57,E*2A
$PFEC,GPatt,,+3.99,-1.05*67
!AIVDM,1,1,,B,402E3OQv5<VPN0OOa`NTs5Q00<5v,0*0F
$HCHDG,130.73,,,1.57,E*2C
$PFEC,GPatt,,+3.99,-1.04*66
$GPZDA,063230.843,25,04,2017,,*5A
$HCHDG,130.72,,,1.57,E*2D
$PFEC,GPatt,,+3.99,-1.03*61
$TIROT,-11.57,A*14
!AIVDO,1,1,,,B3aC3e@0007Mnq7WIG0q;wgUsP06,0*01
$HCHDG,130.69,,,1.57,E*27
$PFEC,GPatt,,+3.98,-1.01*62
$SDDPT,2.03,-1.70,*51
$AGRSA,3.64,A,,V*4E
!AIVDM,1,1,,A,13aIjI0P00PO`<bNPOfJW?w024j0,0*60
$HCHDG,130.68,,,1.57,E*26
$PFEC,GPatt,,+3.97,-1.00*6C
$VWVHW,,T,130.68,M,0.00,N,0.00,K*46
$VWVLW,0.00,N,0.00,N*4C
$GPGBS,063231.00,2.1,1.6,3.2,,,,*41
!AIVDM,1,1,,A,13aDpKhP00POeb@NPI@b2Ow02<31,0*19
$HCHDG,130.67,,,1.57,E*29
$PFEC,GPatt,,+3.94,-0.99*6E
$GPGLL,5314.199,N,00631.461,E,063231.243,A,A*5C
$GPRMC,063231.243,A,5314.199,N,00631.461,E,0.03,45.00,250417,1.57,E,A*04
$HCHDG,130.64,,,1.57,E*2A
$PFEC,GPatt,,+3.94,-0.97*60
$WIMTW,9.50,C*01
$WIMWV,141.97,R,10.69,N,A*17
!AIVDM,1,1,,A,13aGuJP000PN>9RNLUV>458v2D0;,0*1B
$HCHDG,130.64,,,1.57,E*2A
$PFEC,GPatt,,+3.93,-0.96*66
$TIROT,-11.89,A*17
$HCHDG,130.65,,,1.57,E*2B
$PFEC,GPatt,,+3.92,-0.95*64
$GPVTG,45.00,T,,M,0.03,N,0.05,K,A*0A
$AGRSA,3.64,A,,V*4E
$HCHDG,130.64,,,1.57,E*2A
$PFEC,GPatt,,+3.91,-0.92*60
$HCHDG,130.64,,,1.57,E*2A
$PFEC,GPatt,,+3.90,-0.91*62
!AIVDM,1,1,,A,33ku9=hOi80LphLNbtSH9no220W0,0*4E
$HCHDG,130.64,,,1.57,E*2A
$PFEC,GPatt,,+3.88,-0.91*6B
$GPZDA,063231.840,25,04,2017,,*58
$HCHDG,130.64,,,1.57,E*2A
$PFEC,GPatt,,+3.87,-0.90*65
$TIROT,-5.15,A*27
!AIVDO,1,1,,,B3aC3e@0007MnqWWIG0sGwh5sP06,0*70
$HCHDG,130.64,,,1.57,E*2A
$PFEC,GPatt,,+3.88,-0.89*62
$SDDPT,1.95,-1.70,*5D
$AGRSA,3.64,A,,V*4E
$HCHDG,130.65,,,1.57,E*2B
!AIVDM,1,1,,B,13aC36@P00PMdnfNLqUh0?w02D1S,0*73
$PFEC,GPatt,,+3.87,-0.87*63
$VWVHW,,T,130.65,M,0.00,N,0.00,K*4B
$VWVLW,0.00,N,0.00,N*4C
$HCHDG,130.66,,,1.57,E*28
$PFEC,GPatt,,+3.89,-0.86*6C
$GPGLL,5314.199,N,00631.461,E,063232.240,A,A*5C
$GPRMC,063232.240,A,5314.199,N,00631.461,E,0.03,45.00,250417,1.57,E,A*04
!AIVDM,1,1,,B,33ku9=hOi80LphLNbtSH9nq221=h,0*60
$HCHDG,130.66,,,1.57,E*28
$PFEC,GPatt,,+3.90,-0.86*64
$WIMTW,9.50,C*01
$WIMWV,135.47,R,11.68,N,A*19
$HCHDG,130.68,,,1.57,E*26
$PFEC,GPatt,,+3.90,-0.85*67
$TIROT,0.66,A*0B
$HCHDG,130.68,,,1.57,E*26
$PFEC,GPatt,,+3.91,-0.86*65
$GPVTG,45.00,T,,M,0.03,N,0.05,K,A*0A
$AGRSA,3.64,A,,V*4E
!AIVDM,1,1,,B,13aENjPP00PLLvvNMWRdDOw02<0e,0*02
!AIVDM,1,1,,A,13aKUWhP00PN<:PNLii>4?w220Rt,0*2A
$HCHDG,130.69,,,1.57,E*27
$PFEC,GPatt,,+3.93,-0.85*64
!AIVDM,1,1,,A,13aI9HHP00PO?40NU=T:K?w228CM,0*3C
!AIVDM,1,1,,B,13alqr0P00PLjmjNT2B`sgw22D1g,0*43
$HCHDG,130.72,,,1.57,E*2D
$PFEC,GPatt,,+3.94,-0.84*62
!AIVDM,1,1,,B,13aFeW@P00POVHRNPHGh0?w228CS,0*58
$HCHDG,130.74,,,1.57,E*2B
$PFEC,GPatt,,+3.94,-0.84*62
$GPZDA,063233.093,25,04,2017,,*5C
$HCHDG,130.75,,,1.57,E*2A
$PFEC,GPatt,,+3.94,-0.84*62
$TIROT,4.55,A*0F
!AIVDM,1,1,,B,35?kED00060OD2JNVkiKc`m000w0,0*7B
$HCHDG,130.77,,,1.57,E*28
$PFEC,GPatt,,+3.93,-0.84*65
$SDDPT,1.95,-1.70,*5D
$AGRSA,3.64,A,,V*4E
!AIVDO,1,1,,,B3aC3e@0007MnqWWIG4uSwhUsP06,0*06
!AIVDM,1,1,,B,33bNqJ?P00PM1SvNUu0@gww424MS,0*01
$HCHDG,130.79,,,1.57,E*26
$PFEC,GPatt,,+3.94,-0.85*63
$VWVHW,,T,130.79,M,0.00,N,0.00,K*46
$VWVLW,0.00,N,0.00,N*4C
!AIVDM,1,1,,A,13aL?J@P000NM>DNKdIQk?w40@Ck,0*13
$HCHDG,130.81,,,1.57,E*21
$PFEC,GPatt,,+3.94,-0.86*60
$GPGLL,5314.199,N,00631.461,E,063233.493,A,A*55
$GPRMC,063233.493,A,5314.199,N,00631.461,E,0.03,45.00,250417,1.57,E,A*0D
!AIVDM,1,1,,A,13fK3j?P00PNbi2NKChv4?w22D3b,0*29
$HCHDG,130.84,,,1.57,E*24
$PFEC,GPatt,,+3.94,-0.87*61
!AIVDM,1,1,,A,33aJI@0P000NGkpNKrGlg?w40593,0*0E
$WIMTW,9.60,C*02
$WIMWV,137.97,R,11.39,N,A*12
$HCHDG,130.86,,,1.57,E*26
$PFEC,GPatt,,+3.94,-0.88*6E
$TIROT,9.25,A*05
!AIVDM,1,1,,B,402E:viv5<VPQPLq1dNN1hQ02<2A,0*26
!AIVDM,1,1,,B,402E;2Qv5<VPQPNk?lNK;sA024j0,0*60
$HCHDG,130.88,,,1.57,E*28
$PFEC,GPatt,,+3.94,-0.90*67
$GPVTG,45.00,T,,M,0.03,N,0.05,K,A*0A
$AGRSA,3.64,A,,V*4E
$HCHDG,130.90,,,1.57,E*21
$PFEC,GPatt,,+3.93,-0.91*61
$HCHDG,130.93,,,1.57,E*22
$PFEC,GPatt,,+3.94,-0.91*66
!AIVDM,1,1,,B,13aDqr?P000N7?8NLml>4?w404j0,0*0B
$HCHDG,130.96,,,1.57,E*27
$PFEC,GPatt,,+3.93,-0.91*61
$GPZDA,063234.310,25,04,2017,,*53
!AIVDM,1,1,,B,13aB99?P0:POEQpNU8Ilm?w428D=,0*7E
$HCHDG,130.97,,,1.57,E*26
$PFEC,GPatt,,+3.93,-0.92*62
$TIROT,10.24,A*3C
!AIVDM,1,1,,B,15BT=`3P00PNe1pN``P`;am028Cb,0*61
!AIVDM,1,1,,B,13aEQ5?P0vPNOOFNMik97Ow4R0Si,0*4D
$HCHDG,130.99,,,1.57,E*28
$PFEC,GPatt,,+3.93,-0.92*62
$SDDPT,1.84,-1.70,*5D
$AGRSA,3.64,A,,V*4E
!AIVDM,1,1,,B,13aN1RHP000M4g8NPJeh2gvJ00RJ,0*4D
!AIVDO,1,1,,,B3aC3e@0007Mnq7WIG403wi5sP06,0*22
!AIVDM,1,1,,A,E>jMjb194U7;2V200000000000007jMJ>sDnp81113v007,4*43
$HCHDG,131.00,,,1.57,E*29
$PFEC,GPatt,,+3.92,-0.94*65
$VWVHW,,T,131.00,M,0.00,N,0.00,K*49
$VWVLW,0.00,N,0.00,N*4C
!AIVDM,1,1,,A,E>jMjb194U7;2V200000000000007jMJ>sDnp81113v007,4*43
$HCHDG,131.04,,,1.57,E*2D
$PFEC,GPatt,,+3.91,-0.94*66
$GPGLL,5314.199,N,00631.461,E,063234.710,A,A*5A
$GPRMC,063234.710,A,5314.199,N,00631.461,E,0.03,45.00,250417,1.57,E,A*02
$HCHDG,131.05,,,1.57,E*2C
$PFEC,GPatt,,+3.91,-0.96*64
$WIMTW,9.60,C*02
$WIMWV,135.47,R,10.08,N,A*1E
!AIVDM,1,1,,B,13aGtWwP0wPLe?:NMogC5ww428DM,0*74
!AIVDM,1,1,,A,13aDAI0P?w<tSF0l4Q@>4?wvPd1r,0*46
!AIVDM,1,1,,A,13aGt8hP00PN<B0NM:J=3ww624j0,0*31
$HCHDG,131.08,,,1.57,E*21
$PFEC,GPatt,,+3.91,-0.97*65
$TIROT,12.41,A*3D
!AIVDM,1,1,,B,13`m;j?P00PNaPPNM:fP0?w62<2>,0*28
$HCHDG,131.10,,,1.57,E*28
$PFEC,GPatt,,+3.91,-0.97*65
$GPVTG,45.00,T,,M,0.03,N,0.05,K,A*0A
$AGRSA,3.64,A,,V*4E
$HCHDG,131.13,,,1.57,E*2B
$PFEC,GPatt,,+3.90,-0.98*6B
$HCHDG,131.17,,,1.57,E*2F
$PFEC,GPatt,,+3.90,-0.98*6B
$HCHDG,131.20,,,1.57,E*2B
$PFEC,GPatt,,+3.90,-0.98*6B
$GPZDA,063235.080,25,04,2017,,*58
$HCHDG,131.23,,,1.57,E*28
$PFEC,GPatt,,+3.89,-0.97*6C
$TIROT,17.59,A*31
$HCHDG,131.26,,,1.57,E*2D
$PFEC,GPatt,,+3.90,-0.99*6A
$SDDPT,2.03,-1.70,*51
$AGRSA,3.64,A,,V*4E
!AIVDO,1,1,,,B3aC3e@0007MnpWWIG4tOwiUsP06,0*1B
$HCHDG,131.29,,,1.57,E*22
$PFEC,GPatt,,+3.90,-0.98*6B
$VWVHW,,T,131.29,M,0.00,N,0.00,K*42
$VWVLW,0.00,N,0.00,N*4C
$GPGBS,063235.00,2.1,1.6,3.2,,,,*45
$HCHDG,131.31,,,1.57,E*2B
$PFEC,GPatt,,+3.89,-0.97*6C
$GPGLL,5314.199,N,00631.461,E,063235.480,A,A*51
$GPRMC,063235.480,A,5314.199,N,00631.461,E,0.03,45.00,250417,1.57,E,A*09
!AIVDM,1,1,,A,13aQdTSP010NdjLNKBDkF?w620SO,0*54
!AIVDM,1,1,,A,13@=8V6000PO<j<NUKGD6SC@08E1,0*0D
$HCHDG,131.33,,,1.57,E*29
$PFEC,GPatt,,+3.89,-0.97*6C
!AIVDM,1,1,,B,13`tl4001o0OGg8NV6A5I4K:0D4b,0*26
$WIMTW,9.50,C*01
$WIMWV,121.97,R,8.88,N,A*27
$HCHDG,131.36,,,1.57,E*2C
$PFEC,GPatt,,+3.89,-0.98*63
$TIROT,16.85,A*31
!AIVDM,1,1,,B,139fUF700LPOSl`NVcJSQ2g80L4:,0*7C
$HCHDG,131.39,,,1.57,E*23
$PFEC,GPatt,,+3.89,-0.96*6D
$GPVTG,45.00,T,,M,0.03,N,0.05,K,A*0A
$AGRSA,3.64,A,,V*4E
!AIVDM,1,1,,A,33aGFDhP13POcjBNPEHrf?w82BK3,0*13
$HCHDG,131.43,,,1.57,E*2E
$PFEC,GPatt,,+3.87,-0.96*63
$HCHDG,131.47,,,1.57,E*2A
$PFEC,GPatt,,+3.88,-0.96*6C
$HCHDG,131.49,,,1.57,E*24
$PFEC,GPatt,,+3.86,-0.96*62
$GPZDA,063236.111,25,04,2017,,*52
!AIVDM,1,1,,B,13aGuEPP1BPJpIVNSHeqa?w:2HEE,0*1F
!AIVDM,1,1,,A,33ku9=hOi7PLpelNbtD8CVu:21rP,0*7F
$HCHDG,131.51,,,1.57,E*2D
$PFEC,GPatt,,+3.85,-0.95*62
$TIROT,18.76,A*33
!AIVDM,1,1,,A,35?kED0P@00OD2@NVki@08m60131,0*26
$HCHDG,131.55,,,1.57,E*29
$PFEC,GPatt,,+3.83,-0.94*65
$SDDPT,2.03,-1.70,*51
$AGRSA,3.64,A,,V*4E
$HCHDG,131.58,,,1.57,E*24
!AIVDO,1,1,,,B3aC3e@0007MnpWWIG0rswj5sP06,0*46
$PFEC,GPatt,,+3.83,-0.92*63
$VWVHW,,T,131.58,M,0.00,N,0.00,K*44
$VWVLW,0.00,N,0.00,N*4C
$HCHDG,131.61,,,1.57,E*2E
$PFEC,GPatt,,+3.83,-0.91*60
$GPGLL,5314.199,N,00631.461,E,063236.511,A,A*5B
$GPRMC,063236.511,A,5314.199,N,00631.461,E,0.03,45.00,250417,1.57,E,A*03
$HCHDG,131.65,,,1.57,E*2A
$PFEC,GPatt,,+3.83,-0.90*61
$WIMTW,9.60,C*02
$WIMWV,127.97,R,8.68,N,A*2F
$HCHDG,131.69,,,1.57,E*26
$PFEC,GPatt,,+3.83,-0.89*69
$TIROT,23.40,A*3E
!AIVDM,1,1,,A,13:QrP302F0OrSBNRPPn2lm:0HEd,0*24
!AIVDM,1,1,,B,B3aSPn@0087MTv7WMCWQ3wj5oP06,0*32
$HCHDG,131.70,,,1.57,E*2E
$PFEC,GPatt,,+3.85,-0.88*6E
!AIVDM,1,1,,B,339KRL001f0PE`tNPlfbEHE:20pP,0*09
$GPVTG,45.00,T,,M,0.03,N,0.05,K,A*0A
$AGRSA,3.64,A,,V*4E
!AIVDM,1,1,,A,13a;2>03Q4PM2L`NTkS4TSs:0L40,0*37
$HCHDG,131.74,,,1.57,E*2A
$PFEC,GPatt,,+3.86,-0.87*62
$HCHDG,131.76,,,1.57,E*28
$PFEC,GPatt,,+3.86,-0.87*62
$HCHDG,131.79,,,1.57,E*27
$PFEC,GPatt,,+3.87,-0.86*62
$GPZDA,063237.074,25,04,2017,,*51
!AIVDM,1,1,,A,13aDobhP00PNEglNL05>4?w:2D1@,0*1C
!AIVDM,1,1,,B,33b:l@7OhI0LsBlNTmVC1TW<014A,0*31
$HCHDG,131.82,,,1.57,E*23
$PFEC,GPatt,,+3.87,-0.84*60
$TIROT,21.82,A*32
$HCHDG,131.84,,,1.57,E*25
$PFEC,GPatt,,+3.87,-0.83*67
$SDDPT,1.89,-1.70,*50
$AGRSA,3.64,A,,V*4E
$HCHDG,131.86,,,1.57,E*27
$PFEC,GPatt,,+3.88,-0.82*69
$VWVHW,,T,131.86,M,0.00,N,0.00,K*47
$VWVLW,0.00,N,0.00,N*4C
!AIVDO,1,1,,,B3aC3e@0007MnpWWIG0q3wjUsP06,0*65
!AIVDM,1,1,,A,13aI980P00PMm08NLjb@0?w;28F8,0*68
!AIVDM,1,1,,B,13aJG?PP00PMWL4NNLpdgOw<2D23,0*0A
$HCHDG,131.86,,,1.57,E*27
$PFEC,GPatt,,+3.89,-0.81*6B
$GPGLL,5314.199,N,00631.461,E,063237.474,A,A*58
$GPRMC,063237.474,A,5314.199,N,00631.461,E,0.03,45.00,250417,1.57,E,A*00
!AIVDM,1,1,,B,E02E34?76@1WPab3bPa200000000:us8?9TV@00003v013,4*0A
!AIVDM,1,1,,A,13aGFtgP00PN9TJNLt=@0?w:24j0,0*2B
$HCHDG,131.87,,,1.57,E*26
$PFEC,GPatt,,+3.90,-0.81*63
$WIMTW,9.60,C*02
$WIMWV,114.97,R,7.69,N,A*21
$HCHDG,131.88,,,1.57,E*29
$PFEC,GPatt,,+3.90,-0.82*60
$TIROT,13.97,A*37
$HCHDG,131.87,,,1.57,E*26
$PFEC,GPatt,,+3.90,-0.83*61
$GPVTG,45.00,T,,M,0.03,N,0.05,K,A*0A
$AGRSA,3.64,A,,V*4E
!AIVDM,1,1,,B,13bo4B00000LItFNSqePLre<00S@,0*76
$HCHDG,131.86,,,1.57,E*27
$PFEC,GPatt,,+3.89,-0.85*6F
!AIVDM,1,1,,A,13a?SnhP00PN1rJNLeJ00?w<2@FJ,0*4F
$HCHDG,131.85,,,1.57,E*24
$PFEC,GPatt,,+3.87,-0.87*63
$HCHDG,131.83,,,1.57,E*22
$PFEC,GPatt,,+3.86,-0.88*6D
$GPZDA,063238.280,25,04,2017,,*57
!AIVDM,1,1,,B,13aL?;mP0aPMi@JNOQqusOw<28FP,0*23
!AIVDM,1,1,,A,13aD@T0P00PN;UfNLwNh0?w<28FS,0*6B
$HCHDG,131.82,,,1.57,E*23
$PFEC,GPatt,,+3.86,-0.91*65
$TIROT,0.26,A*0F
$HCHDG,131.79,,,1.57,E*27
$PFEC,GPatt,,+3.84,-0.92*64
$SDDPT,1.89,-1.70,*50
$AGRSA,3.64,A,,V*4E
$HCHDG,131.77,,,1.57,E*29
$PFEC,GPatt,,+3.85,-0.94*63
$VWVHW,,T,131.77,M,0.00,N,0.00,K*49
$VWVLW,0.00,N,0.00,N*4C
!AIVDO,1,1,,,B3aC3e@0007MnpWWIFtoCwk5sP06,0*2F
!AIVDM,1,1,,B,13aB9a0P000LK1FNSobtHgw>28Fe,0*57
$HCHDG,131.75,,,1.57,E*2B
$PFEC,GPatt,,+3.83,-0.95*64
$GPGLL,5314.199,N,00631.461,E,063238.680,A,A*5E
$GPRMC,063238.680,A,5314.199,N,00631.461,E,0.03,45.00,250417,1.57,E,A*06
$HCHDG,131.71,,,1.57,E*2F
$PFEC,GPatt,,+3.83,-0.95*64
$WIMTW,9.60,C*02
$WIMWV,118.97,R,8.18,N,A*24
!AIVDM,1,1,,A,13aI9LhP00PMEHnNNDIv4?w<24j0,0*58
!AIVDM,1,1,,B,13`o<d0P000Lnc2NQ<0bPgw<08Fm,0*7D
$HCHDG,131.69,,,1.57,E*26
$PFEC,GPatt,,+3.83,-0.97*66
$TIROT,-9.83,A*24
$HCHDG,131.65,,,1.57,E*2A
$PFEC,GPatt,,+3.82,-0.99*69
$GPVTG,45.00,T,,M,0.03,N,0.05,K,A*0A
$AGRSA,3.64,A,,V*4E
!AIVDM,1,1,,B,13aFgiPP0uPO`?8NPG0rgOw>2@Ft,0*09
$HCHDG,131.63,,,1.57,E*2C
$PFEC,GPatt,,+3.81,-0.99*6A
!AIVDM,1,1,,A,13aDvt001PPO@HPNV<15pTw804j0,0*30
$HCHDG,131.59,,,1.57,E*25
$PFEC,GPatt,,+3.81,-0.99*6A
